{'id': 286, 'country_id': 116, 'city': 'Paris', 'latitude': 48.8534951, 'longitude': 2.3483915, 'description': 'Explore the iconic landmarks such as Eiffel Tower, Louvre Museum, and Notre-Dame Cathedral.'}
{'id': 287, 'country_id': 116, 'city': 'Nice', 'latitude': 43.7009358, 'longitude': 7.2683912, 'description': 'Relax on the beautiful beaches of Nice and enjoy the vibrant atmosphere of the Promenade des Anglais.'}
{'id': 288, 'country_id': 116, 'city': 'Bordeaux', 'latitude': 44.841225, 'longitude': -0.5800364, 'description': 'Discover the prestigious vineyards of Bordeaux, enjoy wine tastings, and explore the UNESCO-listed city center.'}
{'id': 289, 'country_id': 116, 'city': 'Lyon', 'latitude': 45.7578137, 'longitude': 4.8320114, 'description': 'Indulge in gastronomic delights in Lyon, known as the food capital of France, and visit the historic Old Town.'}
{'id': 290, 'country_id': 116, 'city': 'Marseille', 'latitude': 43.2961743, 'longitude': 5.3699525, 'description': 'Experience the vibrant culture of Marseille, explore the picturesque Vieux Port, and stroll along the coastal promenade.'}
{'id': 291, 'country_id': 116, 'city': 'Cannes', 'latitude': 43.5515198, 'longitude': 7.0134418, 'description': 'Experience the glitz and glamour of the famous Cannes Film Festival, stroll along the elegant Croisette Boulevard, and relax on the sandy beaches.'}
{'id': 292, 'country_id': 116, 'city': 'Mont Saint-Michel', 'latitude': 48.6359541, 'longitude': -1.511459954959514, 'description': 'Discover the awe-inspiring medieval abbey perched on a rocky island, surrounded by vast tidal flats.'}
{'id': 293, 'country_id': 116, 'city': 'Strasbourg', 'latitude': 48.584614, 'longitude': 7.7507127, 'description': 'Immerse yourself in the enchanting blend of French and German influences, explore the charming Petite France neighborhood and visit the stunning Strasbourg Cathedral.'}
{'id': 294, 'country_id': 116, 'city': 'Toulouse', 'latitude': 43.6044622, 'longitude': 1.4442469, 'description': 'Experience the vibrant pink city, known for its aerospace industry, rich history, and distinctive red-brick architecture.'}
{'id': 295, 'country_id': 116, 'city': 'Avignon', 'latitude': 43.9492493, 'longitude': 4.8059012, 'description': 'Visit the UNESCO World Heritage-listed historic center, including the impressive Palais des Papes and the famous Avignon Bridge.'}
{'id': 296, 'country_id': 114, 'city': 'Yasawa Islands', 'latitude': -17.2909471, 'longitude': 177.12578580330327, 'description': 'Return to the Yasawa Islands to fully embrace the island paradise. Spend your days snorkeling, kayaking, or simply unwinding on the powdery beaches while enjoying the breathtaking views of the Pacific.'}
{'id': 297, 'country_id': 114, 'city': 'Denarau Island', 'latitude': -17.7753245, 'longitude': 177.37776444335395, 'description': 'Denarau Island is a luxury resort area known for its beautiful beaches, golf courses, and upscale accommodations. Enjoy a day of relaxation on the pristine shores, indulge in water sports, or take a boat trip to the nearby Mamanuca Islands.'}
{'id': 298, 'country_id': 114, 'city': 'Vanua Levu', 'latitude': -16.5788332, 'longitude': 179.1930927246919, 'description': 'Vanua Levu is the second-largest island in Fiji and offers a more off-the-beaten-path experience. Explore the untouched rainforests, visit traditional Fijian villages, and enjoy the peaceful atmosphere of this tropical paradise.'}
{'id': 299, 'country_id': 114, 'city': 'Nadi', 'latitude': -17.7992725, 'longitude': 177.4178549, 'description': 'End your trip by returning to Nadi. Spend your final day souvenir shopping, taking a relaxing spa treatment, or simply enjoying the serene beaches before departing from Fiji.'}
{'id': 300, 'country_id': 114, 'city': 'Beqa Island', 'latitude': -18.3911869, 'longitude': 178.12285193309967, 'description': 'Beqa Island is known for its stunning coral reefs and thrilling shark diving experiences. Immerse yourself in the underwater world while diving with sharks or relax on the pristine sandy beaches of this secluded island.'}
{'id': 301, 'country_id': 80, 'city': 'Rio de Janeiro', 'latitude': -22.9110137, 'longitude': -43.2093727, 'description': 'Explore the stunning beaches of Copacabana and Ipanema, visit the iconic Christ the Redeemer statue, and enjoy the vibrant nightlife.'}
{'id': 302, 'country_id': 80, 'city': 'Sao Paulo', 'latitude': -23.5506507, 'longitude': -46.6333824, 'description': 'Experience the bustling metropolis of Sao Paulo, known for its vibrant culture, diverse cuisine, and impressive skyline.'}
{'id': 303, 'country_id': 80, 'city': 'Manaus', 'latitude': -3.1316333, 'longitude': -59.9825041, 'description': 'Embark on a unique adventure in the heart of the Amazon rainforest, explore the diverse wildlife, and visit local indigenous communities.'}
{'id': 304, 'country_id': 80, 'city': 'Recife', 'latitude': -8.0584933, 'longitude': -34.8848193, 'description': 'Discover the vibrant city of Recife, known for its beautiful beaches, lively culture, and historic center.'}
{'id': 305, 'country_id': 80, 'city': 'Salvador', 'latitude': -12.9822499, 'longitude': -38.4812772, 'description': 'Immerse yourself in the rich Afro-Brazilian culture of Salvador, visit historic colonial buildings, and enjoy traditional music and dance.'}
{'id': 306, 'country_id': 80, 'city': 'Ouro Preto', 'latitude': -20.385527, 'longitude': -43.5035214, 'description': 'Step back in time and witness the well-preserved colonial architecture of Ouro Preto, a UNESCO World Heritage site.'}
{'id': 307, 'country_id': 80, 'city': 'Iguazu Falls', 'latitude': -25.693905, 'longitude': -54.4365376, 'description': 'Explore the awe-inspiring Iguazu Falls, a natural wonder shared by Brazil and Argentina, surrounded by lush rainforest.'}
{'id': 308, 'country_id': 80, 'city': 'Fernando de Noronha', 'latitude': -3.8545643, 'longitude': -32.37861623300567, 'description': 'Escape to the pristine beaches and crystal-clear waters of Fernando de Noronha, a paradise for diving and snorkeling enthusiasts.'}
{'id': 309, 'country_id': 80, 'city': 'São Paulo', 'latitude': -23.5506507, 'longitude': -46.6333824, 'description': "Brazil's largest city, offering a bustling cosmopolitan experience with diverse cultural attractions and a vibrant nightlife."}
{'id': 310, 'country_id': 80, 'city': 'Paraty', 'latitude': -23.2196461, 'longitude': -44.7154196, 'description': 'Experience the charm of Paraty, a historical coastal town with cobblestone streets, colorful buildings, and nearby tropical islands.'}
{'id': 311, 'country_id': 80, 'city': 'Florianópolis', 'latitude': -27.5973002, 'longitude': -48.5496098, 'description': 'Head to Florianópolis for beautiful beaches, great surf spots, and a relaxed island lifestyle.'}
{'id': 312, 'country_id': 80, 'city': 'Brasília', 'latitude': -10.3333333, 'longitude': -53.2, 'description': "Explore the modernist architecture of Brazil's capital city, including the famous government buildings and impressive urban planning."}
{'id': 313, 'country_id': 80, 'city': 'Bonito', 'latitude': -11.9665473, 'longitude': -41.2649896, 'description': 'Discover the natural wonders of Bonito, known for its crystal-clear rivers, impressive caves, and abundant wildlife.'}
{'id': 314, 'country_id': 219, 'city': 'Barcelona', 'latitude': 41.3828939, 'longitude': 2.1774322, 'description': 'Explore the vibrant city of Barcelona with its unique architecture, beautiful beaches, and bustling street markets.'}
{'id': 315, 'country_id': 219, 'city': 'Madrid', 'latitude': 40.4167047, 'longitude': -3.7035825, 'description': 'Visit the capital city of Spain, Madrid, and experience its rich culture, world-class museums, and lively nightlife.'}
{'id': 316, 'country_id': 219, 'city': 'Seville', 'latitude': 37.3886303, 'longitude': -5.9953403, 'description': 'Discover the enchanting city of Seville, known for its stunning architecture, flamenco dancing, and delicious tapas.'}
{'id': 317, 'country_id': 219, 'city': 'Granada', 'latitude': 37.1734995, 'longitude': -3.5995337, 'description': 'Famous for the stunning Alhambra palace and the historic Albaicín neighborhood'}
{'id': 318, 'country_id': 219, 'city': 'Ibiza', 'latitude': 38.974390099999994, 'longitude': 1.4197463178515335, 'description': 'An island known for its vibrant nightlife, crystal-clear waters, and beautiful beaches'}
{'id': 319, 'country_id': 219, 'city': 'Valencia', 'latitude': 39.4697065, 'longitude': -0.3763353, 'description': 'Known for its futuristic City of Arts and Sciences and delicious paella'}
{'id': 320, 'country_id': 219, 'city': 'Valle de los Caídos', 'latitude': 40.64179465, 'longitude': -4.15528565, 'description': 'Visit the Valley of the Fallen, a monument and basilica located near Madrid, dedicated to those who died during the Spanish Civil War.'}
{'id': 321, 'country_id': 219, 'city': 'San Sebastian', 'latitude': 43.3224219, 'longitude': -1.9838889, 'description': 'Indulge in the culinary delights of San Sebastian, renowned for its Michelin-starred restaurants, beautiful beaches, and charming old town.'}
{'id': 322, 'country_id': 138, 'city': 'Rome', 'latitude': 41.8933203, 'longitude': 12.4829321, 'description': 'Explore the ancient ruins of the Roman Empire and visit famous landmarks like the Colosseum and the Vatican City.'}
{'id': 323, 'country_id': 138, 'city': 'Florence', 'latitude': 43.7698712, 'longitude': 11.2555757, 'description': 'Marvel at Renaissance art in the Uffizi Gallery, visit the Duomo, and stroll across the Ponte Vecchio.'}
{'id': 324, 'country_id': 138, 'city': 'Venice', 'latitude': 45.4371908, 'longitude': 12.3345898, 'description': "Take a romantic gondola ride along the canals and visit St. Mark's Square"}
{'id': 325, 'country_id': 138, 'city': 'Milan', 'latitude': 45.4641943, 'longitude': 9.1896346, 'description': "Discover the fashion capital of Italy, see Leonardo da Vinci's 'The Last Supper', and visit the magnificent Milan Cathedral."}
{'id': 326, 'country_id': 138, 'city': 'Cinque Terre', 'latitude': 44.1222144, 'longitude': 9.7132501, 'description': 'Hike along the picturesque coastal trail connecting the colorful villages of Monterosso, Vernazza, Corniglia, Manarola, and Riomaggiore.'}
{'id': 327, 'country_id': 60, 'city': 'Andorra la Vella', 'latitude': 42.5069391, 'longitude': 1.5212467, 'description': 'The capital city of Andorra, known for its charming old town and tax-free shopping.'}
{'id': 328, 'country_id': 60, 'city': 'Soldeu', 'latitude': 42.5768944, 'longitude': 1.6682694, 'description': 'A ski resort village renowned for its excellent slopes and winter sports facilities.'}
{'id': 329, 'country_id': 60, 'city': 'Encamp', 'latitude': 42.5359781, 'longitude': 1.5836753, 'description': 'A town located in the Pyrenees, perfect for outdoor enthusiasts and nature lovers.'}
{'id': 330, 'country_id': 60, 'city': 'Canillo', 'latitude': 42.5668305, 'longitude': 1.5977647, 'description': 'A picturesque village surrounded by mountains, popular for outdoor activities like hiking and skiing.'}
{'id': 331, 'country_id': 60, 'city': 'Ordino', 'latitude': 42.55615, 'longitude': 1.5334945, 'description': "A small town with beautiful architecture and a rich cultural heritage, offering opportunities for sightseeing and exploring Andorra's history."}
{'id': 332, 'country_id': 198, 'city': 'Bucharest', 'latitude': 44.4361414, 'longitude': 26.1027202, 'description': 'Bucharest, the capital of Romania, is known for its stunning architecture, vibrant nightlife, and rich history. Explore the iconic Palace of the Parliament, take a leisurely stroll in the beautiful Herastrau Park, and visit the historic Village Museum.'}
{'id': 333, 'country_id': 198, 'city': 'Brașov', 'latitude': 45.6525105, 'longitude': 25.6105654, 'description': 'Brașov is a charming city nestled in the Carpathian Mountains. Enjoy a scenic drive through the picturesque Transylvania region to reach this medieval town. Visit the famous Black Church, explore the old town with its colorful houses and narrow streets, and take a cable car ride to the top of Mount Tâmpa for panoramic views.'}
{'id': 334, 'country_id': 198, 'city': 'Cluj-Napoca', 'latitude': 46.769379, 'longitude': 23.5899542, 'description': 'The unofficial capital of Transylvania, renowned for its cultural scene, lively atmosphere, and beautiful architecture.'}
{'id': 335, 'country_id': 198, 'city': 'Brasov', 'latitude': 45.6525105, 'longitude': 25.6105654, 'description': "A charming city nestled in the Carpathian Mountains, famous for its medieval architecture and proximity to Bran Castle, also known as Dracula's Castle."}
{'id': 336, 'country_id': 58, 'city': 'Saranda', 'latitude': 39.8752198, 'longitude': 20.0065258, 'description': 'Saranda is a popular coastal town in southern Albania. It offers beautiful beaches, crystal-clear waters, and is a gateway to the ancient ruins of Butrint National Park.'}
{'id': 337, 'country_id': 58, 'city': 'Tirana', 'latitude': 41.3281482, 'longitude': 19.8184435, 'description': 'Tirana is the capital and largest city of Albania. It is known for its vibrant energy, with a mix of modern and communist-era architecture.'}
{'id': 338, 'country_id': 58, 'city': 'Gjirokaster', 'latitude': 40.0770871, 'longitude': 20.1393359, 'description': 'Gjirokaster is another UNESCO World Heritage Site in Albania. It is known for its Ottoman-style houses, cobblestone streets, and its imposing hilltop castle.'}
{'id': 339, 'country_id': 58, 'city': 'Berat', 'latitude': 40.7018636, 'longitude': 19.9580758, 'description': "Berat is a historic city known as the 'City of a Thousand Windows'. It is famous for its well-preserved Ottoman-era houses and its medieval castle."}
{'id': 340, 'country_id': 136, 'city': 'Belfast', 'latitude': 54.596391, 'longitude': -5.9301829, 'description': "Explore the capital city of Northern Ireland, see the Titanic Belfast museum, visit the Giant's Causeway, and discover the vibrant street art scene in the Cathedral Quarter."}
{'id': 341, 'country_id': 136, 'city': 'Galway', 'latitude': 53.2744122, 'longitude': -9.0490601, 'description': 'A charming coastal city with a bohemian atmosphere and a lively arts scene. Explore the colorful streets of Galway and enjoy traditional Irish music in its pubs.'}
{'id': 342, 'country_id': 136, 'city': 'Limerick', 'latitude': 52.661252, 'longitude': -8.6301239, 'description': "Discover the ancient history of Limerick, visit the stunning King John's Castle, and explore the charming streets lined with Georgian architecture and medieval relics."}
{'id': 343, 'country_id': 136, 'city': 'Dublin', 'latitude': 53.3493795, 'longitude': -6.2605593, 'description': 'The capital city of Ireland, known for its vibrant nightlife and historical landmarks such as Dublin Castle and Trinity College.'}
{'id': 344, 'country_id': 136, 'city': 'Cork', 'latitude': 51.897077, 'longitude': -8.4654674, 'description': 'Visit the second largest city in Ireland, known for its rich history, lively markets, and proximity to the beautiful countryside of County Cork.'}
{'id': 345, 'country_id': 122, 'city': 'Santorini', 'latitude': 36.4071112, 'longitude': 25.456663652707153, 'description': 'A beautiful island known for its stunning sunsets, white-washed buildings, and blue-domed churches.'}
{'id': 346, 'country_id': 122, 'city': 'Athens', 'latitude': 37.9755648, 'longitude': 23.7348324, 'description': 'The capital city of Greece with historical landmarks such as the Acropolis and Parthenon.'}
{'id': 347, 'country_id': 82, 'city': 'Plovdiv', 'latitude': 42.1418541, 'longitude': 24.7499297, 'description': 'Plovdiv is the second-largest city in Bulgaria and is famous for its well-preserved Roman architecture. Explore the Ancient Theatre of Plovdiv, the Roman Stadium, and the charming Old Town with its cobblestone streets and traditional houses.'}
{'id': 348, 'country_id': 82, 'city': 'Sofia', 'latitude': 42.6977028, 'longitude': 23.3217359, 'description': 'Sofia is the capital and largest city of Bulgaria. It offers a blend of modern and historical attractions, including the Alexander Nevsky Cathedral and the Vitosha Mountain. Sofia is also known for its vibrant nightlife and delicious cuisine.'}
{'id': 349, 'country_id': 82, 'city': 'Burgas', 'latitude': 42.444553, 'longitude': 27.208264534658166, 'description': 'Burgas is located on the Bulgarian Black Sea coast and offers beautiful sandy beaches and a vibrant summer atmosphere. Enjoy the relaxing beach vibes, visit the Sea Garden, and explore the nearby town of Nessebar, which is a UNESCO World Heritage Site.'}
{'id': 350, 'country_id': 82, 'city': 'Veliko Tarnovo', 'latitude': 43.2164885, 'longitude': 25.611409300395785, 'description': 'Veliko Tarnovo is a picturesque town with a rich history. Visit the Tsarevets Fortress, marvel at the stunning views from the Gurko Street, and wander around the Samovodska Charshiya Street, known for its craft shops and traditional Bulgarian products.'}
{'id': 351, 'country_id': 101, 'city': 'Aarhus', 'latitude': 56.1496278, 'longitude': 10.2134046, 'description': 'A lively university town with a rich cultural scene, known for its art museums and scenic coastline.'}
{'id': 352, 'country_id': 101, 'city': 'Copenhagen', 'latitude': 55.6867243, 'longitude': 12.5700724, 'description': 'The capital city of Denmark, known for its beautiful architecture, historic sites, and vibrant restaurant scene.'}
{'id': 353, 'country_id': 101, 'city': 'Aalborg', 'latitude': 57.0462626, 'longitude': 9.9215263, 'description': 'A charming city filled with historic sites, including an impressive medieval castle and a vibrant waterfront.'}
{'id': 354, 'country_id': 120, 'city': 'Berlin', 'latitude': 52.5170365, 'longitude': 13.3888599, 'description': 'Capital city of Germany with rich history and vibrant nightlife'}
{'id': 355, 'country_id': 120, 'city': 'Cologne', 'latitude': 50.938361, 'longitude': 6.959974, 'description': 'Famous for its stunning cathedral and vibrant arts scene'}
{'id': 356, 'country_id': 120, 'city': 'Munich', 'latitude': 48.1371079, 'longitude': 11.5753822, 'description': "Bavaria's cultural and beer capital famous for Oktoberfest"}
{'id': 357, 'country_id': 196, 'city': 'Sintra', 'latitude': 38.79846, 'longitude': -9.3881, 'description': 'Sintra is a fairytale-like town located just outside of Lisbon. It is famous for its romantic, palatial architecture and enchanting landscapes. A visit to Sintra is like stepping into a storybook.'}
{'id': 358, 'country_id': 196, 'city': 'Porto', 'latitude': 41.1494512, 'longitude': -8.6107884, 'description': 'Porto is a charming city known for its port wine cellars, colorful buildings, and beautiful waterfront. It offers a perfect mix of history, culture, and delicious food.'}
{'id': 359, 'country_id': 196, 'city': 'Lisbon', 'latitude': 38.7077507, 'longitude': -9.1365919, 'description': 'Lisbon is the capital and largest city of Portugal. It is a vibrant and dynamic city with a rich history and stunning architecture.'}
{'id': 360, 'country_id': 196, 'city': 'Faro', 'latitude': 37.0162727, 'longitude': -7.9351771, 'description': 'Faro is a charming city in southern Portugal, famous for its beautiful beaches and vibrant Old Town. Explore the medieval walls of Faro Cathedral and relax on the sandy shores of Praia de Faro.'}
{'id': 361, 'country_id': 131, 'city': 'Vik', 'latitude': 63.4188166, 'longitude': -19.0054737, 'description': "Vik is a picturesque village on Iceland's south coast. Marvel at the black sand beaches, visit the Reynisfjara basalt columns, and take a hike to the nearby Dyrhólaey peninsula."}
{'id': 362, 'country_id': 131, 'city': 'Akureyri', 'latitude': 65.68390355, 'longitude': -18.11217559813441, 'description': 'Located in northern Iceland, Akureyri is a charming town with stunning landscapes. Enjoy the beauty of Godafoss waterfall, explore the botanical gardens, and take a whale-watching tour.'}
{'id': 363, 'country_id': 131, 'city': 'Reykjavik', 'latitude': 64.145981, 'longitude': -21.9422367, 'description': 'The capital city of Iceland is known for its vibrant arts scene, colorful houses, and lively nightlife. Visit the iconic Hallgrimskirkja church, explore the museums, and soak in the famous Blue Lagoon.'}
{'id': 364, 'country_id': 137, 'city': 'Dead Sea', 'latitude': 31.148922, 'longitude': 35.362029, 'description': 'Relax and float in the famous Dead Sea, known for its high salt content and therapeutic properties. Enjoy mud mask treatments, soak up the unique surroundings, and take in the stunning views.'}
{'id': 365, 'country_id': 137, 'city': 'Tel Aviv', 'latitude': 32.0852997, 'longitude': 34.7818064, 'description': 'Visit the vibrant city of Tel Aviv, known for its stunning beaches, lively nightlife, and modern architecture. Explore the historic neighborhood of Jaffa and enjoy delicious Israeli cuisine.'}
{'id': 366, 'country_id': 137, 'city': 'Jerusalem', 'latitude': 31.7788242, 'longitude': 35.2257626, 'description': "Experience the rich history and religious significance of Jerusalem. Visit iconic sites such as the Western Wall, the Church of the Holy Sepulchre, and the Dome of the Rock. Explore the narrow alleys of the Old City and learn about the city's diverse cultures."}
{'id': 367, 'country_id': 73, 'city': 'Bruges', 'latitude': 51.2085526, 'longitude': 3.226772, 'description': "After Brussels, head towards the charming city of Bruges. Spend the next 3 days wandering through its picturesque streets, lined with medieval buildings and romantic canals. Visit the historic Markt square, take a boat ride along the canals, and indulge in the delectable Belgian chocolates. Bruges is often referred to as the 'Venice of the North' for its enchanting beauty."}
{'id': 368, 'country_id': 73, 'city': 'Brussels', 'latitude': 50.8465573, 'longitude': 4.351697, 'description': "Brussels, the capital of Belgium, is known for its beautiful architecture, delicious chocolate, and famous waffles. Spend your first 3 days exploring iconic sites like the Grand Place, Atomium, and the Manneken Pis statue. Don't forget to try some authentic Belgian cuisine and sample local beers."}
{'id': 369, 'country_id': 73, 'city': 'Ghent', 'latitude': 51.0538286, 'longitude': 3.7250121, 'description': "Ghent is a vibrant city with a rich cultural heritage. Explore the medieval city center, visit the stunning Saint Bavo's Cathedral and the famous Ghent Altarpiece. Don't forget to try some local delicacies like Waterzooi and cuberdons."}
{'id': 370, 'country_id': 73, 'city': 'Antwerp', 'latitude': 51.2211097, 'longitude': 4.3997081, 'description': "Antwerp is a dynamic city known for its fashion, art, and diamond trade. Visit the beautiful Antwerp Cathedral, explore the trendy fashion district, and admire the intricate architecture of the Central Station. Don't miss the chance to try Antwerp's famous fries and beer."}
{'id': 371, 'country_id': 240, 'city': 'London', 'latitude': 51.5073359, 'longitude': -0.12765, 'description': 'Experience the iconic landmarks such as Big Ben, Buckingham Palace, and the Tower of London. Explore world-class museums like the British Museum and Tate Modern. Enjoy vibrant nightlife in Soho and visit the famous West End for a theater performance.'}
{'id': 372, 'country_id': 240, 'city': 'Edinburgh', 'latitude': 55.9533456, 'longitude': -3.1883749, 'description': "Visit the historic Edinburgh Castle and Royal Mile. Explore the beautiful Holyrood Park and hike up Arthur's Seat for panoramic views. Enjoy the vibrant atmosphere of the Edinburgh Festival if it's during the time of your visit."}
{'id': 373, 'country_id': 240, 'city': 'Oxford', 'latitude': 51.7520131, 'longitude': -1.2578499, 'description': 'Immerse yourself in academic heritage at the prestigious University of Oxford. Explore the historic colleges and punting on the River Thames.'}
{'id': 374, 'country_id': 240, 'city': 'Bath', 'latitude': 51.3813864, 'longitude': -2.3596963, 'description': 'Discover the ancient Roman Baths and Georgian architecture in the picturesque city of Bath. Take a leisurely stroll along the Bath Abbey and visit the Jane Austen Centre.'}
{'id': 375, 'country_id': 65, 'city': 'Sydney', 'latitude': -33.8698439, 'longitude': 151.2082848, 'description': 'Explore the iconic Sydney Opera House and take a harbor cruise. Visit the famous Bondi Beach and enjoy a coastal walk. Discover the historic Rocks area and climb the Sydney Harbour Bridge.'}
{'id': 376, 'country_id': 65, 'city': 'Cairns', 'latitude': -16.9206657, 'longitude': 145.7721854, 'description': 'Discover the Great Barrier Reef with snorkeling or scuba diving. Explore the Daintree Rainforest and take a scenic railway or cable car ride in Kuranda. Relax on the beautiful beaches and enjoy the tropical climate.'}
{'id': 377, 'country_id': 65, 'city': 'Melbourne', 'latitude': -37.8142454, 'longitude': 144.9631732, 'description': "Experience Melbourne's vibrant arts and culture scene. Explore the charming laneways and enjoy the city's world-class coffee and food. Visit the Royal Botanic Gardens and take a scenic drive along the Great Ocean Road."}
{'id': 378, 'country_id': 65, 'city': 'Brisbane', 'latitude': -27.4689682, 'longitude': 153.0234991, 'description': "Brisbane offers a mix of modern attractions and outdoor adventures. Enjoy the city's vibrant riverside dining scene, visit the Queensland Museum and Gallery of Modern Art, and take a day trip to the stunning Moreton Island for sandboarding and dolphin feeding."}
{'id': 379, 'country_id': 65, 'city': 'Perth', 'latitude': -31.9558933, 'longitude': 115.8605855, 'description': 'Explore the capital city of Western Australia, Perth. Enjoy beautiful city parks like Kings Park and Botanic Garden, visit the Fremantle Prison, take a day trip to Rottnest Island to meet friendly quokkas, and indulge in delicious food and wine in the Swan Valley region.'}
{'id': 380, 'country_id': 65, 'city': 'Ayers Rock (Uluru)', 'latitude': -25.3455545, 'longitude': 131.03696147470208, 'description': 'Visit Ayers Rock, a sacred Aboriginal site and an iconic natural wonder. Witness the breathtaking sunrise and sunset over Uluru, explore the Kata Tjuta rock formations, learn about Aboriginal culture and their connection to the land, and take part in guided walks to discover the unique flora and fauna.'}
{'id': 381, 'country_id': 137, 'city': 'Haifa', 'latitude': 32.8191218, 'longitude': 34.9983856, 'description': "Visit the beautiful Bahá'í Gardens and stroll along the picturesque Carmel Beach."}
{'id': 382, 'country_id': 77, 'city': 'Sucre', 'latitude': -19.0477251, 'longitude': -65.2594306, 'description': 'Discover the charming colonial city of Sucre, known for its well-preserved architecture and historical significance. Visit the Casa de la Libertad and enjoy the local cuisine.'}
{'id': 383, 'country_id': 77, 'city': 'La Paz', 'latitude': -16.4955455, 'longitude': -68.1336229, 'description': "Explore the vibrant capital city of Bolivia known for its stunning views and rich culture. Visit attractions like Plaza Murillo, Witches' Market, and Valle de la Luna."}
{'id': 384, 'country_id': 77, 'city': 'Uyuni', 'latitude': -20.46060285, 'longitude': -66.82436382407782, 'description': 'Embark on an incredible journey to the famous Uyuni Salt Flats, the largest salt flat in the world. Marvel at the expansive white landscape and unique formations.'}
{'id': 385, 'country_id': 77, 'city': 'Salar de Uyuni', 'latitude': -20.2030284, 'longitude': -67.51649986663654, 'description': "After your time in La Paz, head south to Uyuni to explore one of the world's largest salt flats, Salar de Uyuni. Spend a day marveling at the endless expanse of white salt, taking perspective-bending photos, and visiting the Isla Incahuasi, an island in the middle of the salt flat. Make sure to catch a sunrise or sunset for an incredible display of colors across the landscape."}
{'id': 386, 'country_id': 190, 'city': 'Panama City', 'latitude': 8.9714493, 'longitude': -79.5341802, 'description': 'Explore the historic Casco Viejo, visit the Panama Canal, and experience the modern skyline of Panama City.'}
{'id': 387, 'country_id': 190, 'city': 'Bocas del Toro', 'latitude': 9.3040623, 'longitude': -82.12848154978464, 'description': 'Relax on beautiful beaches, go snorkeling or diving in the crystal-clear waters, and explore the lush rainforests.'}
{'id': 388, 'country_id': 190, 'city': 'Boquete', 'latitude': 8.74095755, 'longitude': -82.38549421370433, 'description': 'Experience the cool mountain climate, hike through scenic trails, and visit coffee plantations.'}
{'id': 389, 'country_id': 63, 'city': 'Buenos Aires', 'latitude': -34.6075682, 'longitude': -58.4370894, 'description': 'Buenos Aires is the capital and largest city of Argentina. It is known for its vibrant culture, tango music, and European-style architecture. Spend your days exploring neighborhoods like La Boca and San Telmo, visiting iconic landmarks like the Obelisco and Casa Rosada, and enjoying delicious Argentine cuisine.'}
{'id': 390, 'country_id': 63, 'city': 'Mendoza', 'latitude': -34.787093049999996, 'longitude': -68.43818677312292, 'description': 'Mendoza is located at the foothills of the Andes Mountains and is famous for its vineyards and wineries. Spend your days wine tasting and exploring the beautiful countryside. You can also go hiking or horseback riding in the nearby mountains.'}
{'id': 391, 'country_id': 63, 'city': 'Bariloche', 'latitude': -41.1334421, 'longitude': -71.3098425, 'description': "Bariloche is a charming town located in the Patagonian region of Argentina. It is known for its stunning landscapes, including the beautiful Nahuel Huapi Lake and the surrounding mountains. Spend your days hiking, skiing (depending on the season), and enjoying outdoor activities. Don't miss trying the delicious chocolate for which Bariloche is famous."}
{'id': 392, 'country_id': 96, 'city': 'Monteverde', 'latitude': 10.291151450000001, 'longitude': -84.81364393886889, 'description': 'Discover the famous cloud forests and enjoy adventurous activities like ziplining.'}
{'id': 393, 'country_id': 96, 'city': 'La Fortuna', 'latitude': 10.4716839, 'longitude': -84.644436, 'description': 'Visit Arenal Volcano National Park and enjoy the natural hot springs.'}
{'id': 394, 'country_id': 96, 'city': 'Manuel Antonio', 'latitude': 9.3898242, 'longitude': -84.14703535236221, 'description': 'Relax on beautiful beaches and hike in Manuel Antonio National Park.'}
{'id': 395, 'country_id': 96, 'city': 'San Jose', 'latitude': 9.9325427, 'longitude': -84.0795782, 'description': 'Explore the cultural and historical attractions of the capital city.'}
{'id': 396, 'country_id': 168, 'city': 'Oaxaca', 'latitude': 17.0, 'longitude': -96.5, 'description': "Oaxaca is known for its rich indigenous culture and colonial architecture. Spend time exploring the charming city, visit Hierve el Agua's petrified waterfalls, and taste the delicious Oaxacan cuisine."}
{'id': 397, 'country_id': 168, 'city': 'Cancun', 'latitude': 21.1617854, 'longitude': -86.8510468, 'description': 'Cancun is famous for its white sandy beaches, turquoise waters, and vibrant nightlife. Enjoy the beachfront resorts, explore the underwater beauty of the Mesoamerican Reef, and take a day trip to the nearby Isla Mujeres.'}
{'id': 398, 'country_id': 168, 'city': 'Mexico City', 'latitude': 19.4326296, 'longitude': -99.1331785, 'description': 'Mexico City is the capital of Mexico and offers a blend of modern and ancient attractions. Visit the historic center, explore the ancient ruins of Teotihuacan, and indulge in the vibrant food and art scene.'}
{'id': 399, 'country_id': 168, 'city': 'Merida', 'latitude': 20.9670759, 'longitude': -89.6237402, 'description': 'Merida, the capital of Yucatan, is a lively city with a great mix of Mayan and colonial heritage. Explore the architectural wonders, visit the nearby ancient Mayan ruins of Uxmal, and experience the unique Yucatecan culture.'}
{'id': 400, 'country_id': 168, 'city': 'Playa del Carmen', 'latitude': 20.6308643, 'longitude': -87.0779503, 'description': 'Relax on the beautiful beaches of Playa del Carmen, go snorkeling or diving in the nearby cenotes, and take a day trip to the stunning Mayan ruins of Tulum overlooking the Caribbean Sea.'}
{'id': 401, 'country_id': 168, 'city': 'Cancún', 'latitude': 21.1617854, 'longitude': -86.8510468, 'description': 'Relax on pristine white-sand beaches, visit the ancient Mayan city of Tulum, and snorkel in the stunning cenotes of the Riviera Maya.'}
{'id': 402, 'country_id': 168, 'city': 'Guadalajara', 'latitude': 20.6720375, 'longitude': -103.338396, 'description': 'Experience the vibrant culture, explore the stunning architecture of Hospicio Cabañas, and taste delicious tequila in its birthplace.'}
{'id': 403, 'country_id': 168, 'city': 'Mérida', 'latitude': 20.9670759, 'longitude': -89.6237402, 'description': 'Discover the charming colonial city, explore Mayan ruins in nearby Uxmal, and sample Yucatecan specialties like cochinita pibil.'}
{'id': 404, 'country_id': 168, 'city': 'Puerto Vallarta', 'latitude': 20.6407176, 'longitude': -105.220306, 'description': 'Enjoy the beautiful beaches and vibrant nightlife. Take a boat tour to the Marietas Islands or go snorkeling in the Banderas Bay. Explore the charming Old Town and its cobblestone streets.'}
{'id': 405, 'country_id': 91, 'city': 'Easter Island', 'latitude': -27.128500000000003, 'longitude': -109.33602969583333, 'description': 'Take a flight to Easter Island (Rapa Nui) and explore the mysterious moai statues. Visit archaeological sites like Rano Raraku, Anakena Beach, and enjoy the unique Polynesian culture.'}
{'id': 406, 'country_id': 91, 'city': 'San Pedro de Atacama', 'latitude': -22.910832, 'longitude': -68.2001376, 'description': "Fly to San Pedro de Atacama, located in the Atacama Desert. Witness surreal landscapes such as the Moon Valley, geysers, salt flats, and enjoy stargazing in one of the world's clearest skies."}
{'id': 407, 'country_id': 91, 'city': 'Valparaíso', 'latitude': -33.0458456, 'longitude': -71.6196749, 'description': 'Experience the colorful and bohemian coastal city of Valparaíso, visit the UNESCO World Heritage-listed historic quarter, ride the funiculars, and enjoy the street art.'}
{'id': 408, 'country_id': 91, 'city': 'Santiago', 'latitude': -33.4377756, 'longitude': -70.6504502, 'description': 'Explore the vibrant capital city of Chile, visit the historic center, La Moneda Palace, Santiago Metropolitan Park, and enjoy the local cuisine.'}
{'id': 409, 'country_id': 91, 'city': 'Pucon', 'latitude': -39.273222, 'longitude': -71.9329968, 'description': 'Head south to Pucon, a picturesque town known for its stunning landscapes. Explore the Villarrica Volcano, visit the hot springs, and enjoy outdoor activities like hiking and kayaking.'}
{'id': 410, 'country_id': 91, 'city': 'Torres del Paine', 'latitude': -51.08272495, 'longitude': -72.96105010668197, 'description': 'Venture into Torres del Paine National Park, famous for its breathtaking landscapes and diverse wildlife. Enjoy hiking among the iconic granite peaks, visit the Grey Glacier, and spot guanacos and condors.'}
{'id': 411, 'country_id': 91, 'city': 'Puerto Varas', 'latitude': -41.317802, 'longitude': -72.9829073, 'description': 'Continue your journey to Puerto Varas, located in the beautiful Lake District region. Admire the stunning views of the Osorno Volcano, explore the German architecture, and indulge in local seafood.'}
{'id': 412, 'country_id': 193, 'city': 'Iquitos', 'latitude': -3.749365, 'longitude': -73.2444145, 'description': 'Embark on an Amazon River adventure, spot wildlife and experience indigenous culture'}
{'id': 413, 'country_id': 193, 'city': 'Cusco', 'latitude': -13.5170887, 'longitude': -71.9785356, 'description': 'Experience the ancient Inca heritage, visit Machu Picchu and explore the Sacred Valley'}
{'id': 414, 'country_id': 193, 'city': 'Lima', 'latitude': -12.0621065, 'longitude': -77.0365256, 'description': 'Explore the capital city of Peru, visit the historic center and Miraflores district'}
{'id': 415, 'country_id': 193, 'city': 'Puno', 'latitude': -15.0, 'longitude': -70.0, 'description': 'Explore the stunning Lake Titicaca, visit the floating islands of Uros'}
{'id': 416, 'country_id': 193, 'city': 'Arequipa', 'latitude': -16.0, 'longitude': -72.25, 'description': 'Discover the colonial architecture, visit Colca Canyon and observe condors'}
{'id': 417, 'country_id': 86, 'city': 'Phnom Penh', 'latitude': 11.568271, 'longitude': 104.9224426, 'description': 'Discover the rich history at the Royal Palace and Silver Pagoda, learn about the Khmer Rouge regime at Tuol Sleng Genocide Museum, and take a boat trip to explore the Mekong River.'}
{'id': 418, 'country_id': 86, 'city': 'Kampot', 'latitude': 10.6314754, 'longitude': 104.132637, 'description': 'Enjoy the scenic riverside town, visit the Bokor National Park and climb the Bokor Hill Station, take a river cruise to see fireflies, and try the famous Kampot pepper.'}
{'id': 419, 'country_id': 86, 'city': 'Sihanoukville', 'latitude': 10.50614075, 'longitude': 103.26205644863938, 'description': 'Relax on the stunning beaches, go snorkeling or scuba diving in the crystal-clear waters, and explore the nearby islands like Koh Rong and Koh Ta Kiev.'}
{'id': 420, 'country_id': 86, 'city': 'Siem Reap', 'latitude': 13.3617562, 'longitude': 103.8590321, 'description': 'Explore the magnificent temples of Angkor Wat and Angkor Thom. Visit the floating village of Kompong Phluk and enjoy a traditional Apsara dance performance.'}
{'id': 421, 'country_id': 98, 'city': 'Havana', 'latitude': 23.135305, 'longitude': -82.3589631, 'description': 'Explore the vibrant capital city of Cuba known for its rich history, colorful architecture, and lively atmosphere. Visit iconic landmarks such as El Capitolio, Plaza de la Catedral, and the Malecon. Enjoy the music and dance scene in the lively streets of Old Havana.'}
{'id': 422, 'country_id': 98, 'city': 'Varadero', 'latitude': 23.149578, 'longitude': -81.260025, 'description': 'Relax and unwind at the beautiful beaches of Varadero. Enjoy the crystal-clear waters, white sandy beaches, and luxurious resorts. Take part in water activities such as snorkeling, diving, or sailing. Indulge in delicious seafood and tropical cocktails.'}
{'id': 423, 'country_id': 98, 'city': 'Trinidad', 'latitude': 21.8052055, 'longitude': -79.9845797, 'description': 'Travel to the UNESCO World Heritage Site of Trinidad, famous for its well-preserved Spanish colonial architecture. Enjoy the cobblestone streets, pastel-colored colonial buildings, and visit the nearby beautiful Playa Ancon beach for some relaxation.'}
{'id': 424, 'country_id': 220, 'city': 'Nuwara Eliya', 'latitude': 7.012402, 'longitude': 80.75716115484704, 'description': "Escape to the cool hill country. Visit tea plantations, enjoy the picturesque scenery, and take a scenic train ride. Explore Horton Plains National Park and hike to World's End."}
{'id': 425, 'country_id': 220, 'city': 'Galle', 'latitude': 6.0328139, 'longitude': 80.214955, 'description': 'Experience the colonial charm of Galle Fort. Walk along the fort walls, visit the lighthouse, and explore the narrow streets filled with Dutch-inspired architecture. Relax at Unawatuna Beach.'}
{'id': 426, 'country_id': 220, 'city': 'Kandy', 'latitude': 7.2931208, 'longitude': 80.6350358, 'description': 'Discover the cultural heart of Sri Lanka. Visit the Temple of the Tooth, Peradeniya Botanical Gardens, and enjoy a traditional dance performance. Take a day trip to Sigiriya or Dambulla.'}
{'id': 427, 'country_id': 220, 'city': 'Colombo', 'latitude': 6.9387469, 'longitude': 79.8541134, 'description': 'Explore the capital city with its mix of modern and colonial architecture. Visit the National Museum, Gangaramaya Temple, and Galle Face Green. Enjoy shopping and dining in the city center.'}
{'id': 428, 'country_id': 220, 'city': 'Ella', 'latitude': 6.8736058, 'longitude': 81.0489927, 'description': "Marvel at the stunning views from Ella Rock, visit the Nine Arch Bridge, and hike to Little Adam's Peak."}
{'id': 429, 'country_id': 132, 'city': 'Agra', 'latitude': 27.1752554, 'longitude': 78.0098161, 'description': 'Visit the world-famous Taj Mahal, a UNESCO World Heritage site and one of the Seven Wonders of the World. Explore the Agra Fort and immerse yourself in the Mughal architecture and history.'}
{'id': 430, 'country_id': 132, 'city': 'Delhi', 'latitude': 28.6273928, 'longitude': 77.1716954, 'description': "Experience the rich history and culture of India's capital city. Visit iconic landmarks such as the Red Fort and Jama Masjid, explore the narrow lanes of Old Delhi, and enjoy delicious street food."}
{'id': 431, 'country_id': 132, 'city': 'Varanasi', 'latitude': 25.3356491, 'longitude': 83.0076292, 'description': 'Experience the spiritual city of Varanasi on the banks of the Ganges River. Witness the mesmerizing Ganga Aarti ceremony, take a boat ride along the ghats, and explore the ancient temples and narrow alleys.'}
{'id': 432, 'country_id': 132, 'city': 'Jaipur', 'latitude': 26.9154576, 'longitude': 75.8189817, 'description': 'Discover the vibrant city of Jaipur, often called the Pink City. Explore magnificent palaces like the Hawa Mahal and Amer Fort, shop for local handicrafts at the bazaars, and indulge in traditional Rajasthani cuisine.'}
{'id': 433, 'country_id': 132, 'city': 'Mumbai', 'latitude': 19.0785451, 'longitude': 72.878176, 'description': 'Discover the bustling city of Mumbai, visit the iconic Gateway of India and explore the historical sites of Elephanta Caves. Stroll along the Marine Drive promenade, visit the vibrant markets, and try the famous street food. Experience the vibrant nightlife and Bollywood culture.'}
{'id': 434, 'country_id': 229, 'city': 'Chiang Mai', 'latitude': 18.7882778, 'longitude': 98.9858802, 'description': 'Explore ancient temples, interact with elephants, and immerse yourself in traditional Thai culture'}
{'id': 435, 'country_id': 229, 'city': 'Phuket', 'latitude': 7.9366015, 'longitude': 98.3529292, 'description': 'Relax on stunning beaches, indulge in water activities, and explore the nearby islands'}
{'id': 436, 'country_id': 229, 'city': 'Bangkok', 'latitude': 13.7524938, 'longitude': 100.4935089, 'description': 'Return to Bangkok for shopping, street food and final exploration before departure'}
{'id': 437, 'country_id': 229, 'city': 'Krabi', 'latitude': 8.1111653, 'longitude': 99.1097298, 'description': 'Discover the breathtaking limestone cliffs, go rock climbing, and take a boat tour to Phi Phi Islands'}
{'id': 438, 'country_id': 229, 'city': 'Koh Samui', 'latitude': 9.4909478, 'longitude': 100.0615105, 'description': 'Experience pristine beaches, visit waterfalls, go snorkeling or diving, and enjoy the lively nightlife.'}
{'id': 439, 'country_id': 229, 'city': 'Ayutthaya', 'latitude': 14.3189468, 'longitude': 100.5111681, 'description': 'Explore ancient ruins, historical temples, and learn about the rich history of the former capital of Thailand.'}
{'id': 440, 'country_id': 251, 'city': 'New York city', 'latitude': 40.7128, 'longitude': -74.006, 'description': 'The bustling, cosmopolitan heart of America, New York city is a global hub of art, culture, fashion and finance.'}
{'id': 441, 'country_id': 140, 'city': 'Tokyo', 'latitude': 35.6762, 'longitude': 139.6503, 'description': 'Tokyo dazzles with its towering skyscrapers, packed streets, futuristic technology and charming shrines.'}
{'id': 442, 'country_id': 92, 'city': 'Beijing', 'latitude': 39.9042, 'longitude': 116.4074, 'description': "Beijing juxtaposes ancient sights like the Forbidden city with modern architectural marvels like the 'Bird's Nest' Olympic Stadium."}
{'id': 443, 'country_id': 107, 'city': 'Cairo', 'latitude': 30.0444, 'longitude': 31.2357, 'description': 'Cairo offers an intriguing blend of ancient wonders like the Pyramids and buzzing modern city life.'}
{'id': 444, 'country_id': 180, 'city': 'Amsterdam', 'latitude': 52.3702, 'longitude': 4.8952, 'description': 'Amsterdam seduces visitors with its picturesque canals, world-class museums, cozy cafés and vibrant nightlife.'}
{'id': 445, 'country_id': 193, 'city': 'Machu Picchu', 'latitude': -13.1631, 'longitude': -72.545, 'description': 'The magnificent Incan ruins of Machu Picchu sit high in the Andes, revealing ancient history and offering breathtaking views.'}
{'id': 446, 'country_id': 168, 'city': 'Mexico city', 'latitude': 19.4326, 'longitude': -99.1332, 'description': "Mexico's vast, cosmopolitan capital city boasts remnants of ancient Aztec sites, Spanish colonial architecture and chic, modern districts."}
{'id': 447, 'country_id': 217, 'city': 'Cape Town', 'latitude': -33.9248, 'longitude': 18.4241, 'description': "Cape Town boasts stunning beaches, soaring mountains and a vibrant waterfront along one of the world's most scenic harbors"}
{'id': 448, 'country_id': 228, 'city': 'Zanzibar', 'latitude': -6.1659, 'longitude': 39.2028, 'description': "Known as the 'Spice Island', tropical Zanzibar has pristine beaches, atmospheric Stone Town and offshore marine life."}
{'id': 449, 'country_id': 97, 'city': 'Dubrovnik', 'latitude': 42.6408, 'longitude': 18.0944, 'description': 'With its pedestrian Old Town encircled by ancient stone walls, Dubrovnik is a picturesque Adriatic jewel.'}
{'id': 450, 'country_id': 86, 'city': 'Angkor Wat', 'latitude': 13.4125, 'longitude': 103.8667, 'description': 'Angkor Wat is an enormous 12th century Hindu temple complex featuring awe-inspiring Khmer architecture.'}
{'id': 451, 'country_id': 141, 'city': 'Petra', 'latitude': 30.3285, 'longitude': 35.4419, 'description': 'Carved into rose-colored rock cliffs, the ancient city of Petra contains tombs, temples, an amphitheater and a canyon.'}
{'id': 452, 'country_id': 241, 'city': 'Grand Canyon', 'latitude': 36.1069, 'longitude': -112.1129, 'description': "One of the world's natural wonders, the Grand Canyon overwhelms with its immense scale and intricate geological colors and shapes."}
{'id': 453, 'country_id': 179, 'city': 'Kathmandu', 'latitude': 27.7017, 'longitude': 85.3206, 'description': 'The capital of Nepal, Kathmandu is a gateway to the Himalayas, exhibiting a fusion of Hindu and Buddhist influences.'}
{'id': 454, 'country_id': 88, 'city': 'Vancouver', 'latitude': 49.2827, 'longitude': -123.1207, 'description': 'A coastal, metropolitan city, Vancouver wows visitors with its snowcapped mountains, lush rainforests and diverse multiculturalism.'}
{'id': 455, 'country_id': 181, 'city': 'Queenstown', 'latitude': -45.0311, 'longitude': 168.6608, 'description': 'Nestled in majestic alpine scenery, adventure junkie haven Queenstown offers skiing, bungy jumping, and vineyards.'}
{'id': 456, 'country_id': 234, 'city': 'Istanbul', 'latitude': 41.0082, 'longitude': 28.9784, 'description': 'Straddling Europe and Asia, Istanbul mesmerizes with historic sights like the Hagia Sophia, Blue Mosque, Topkapi Palace and Grand Bazaar.'}
{'id': 457, 'country_id': 199, 'city': 'Moscow', 'latitude': 55.7558, 'longitude': 37.6173, 'description': "Russia's political and economic capital, Moscow impresses visitors with its bold Soviet architecture, opulent metro stations, and the Kremlin's iconic red brick walls."}
{'id': 458, 'country_id': 66, 'city': 'Vienna', 'latitude': 48.2082, 'longitude': 16.3738, 'description': 'Musically renowned Vienna enchants with imperial palaces, world-class museums, coffeehouses, charming wine taverns and ornate architecture.'}
{'id': 459, 'country_id': 252, 'city': 'Seoul', 'latitude': 37.5665, 'longitude': 126.978, 'description': 'Ultramodern skyscrapers tower over Buddhist temples and imposing palaces in energetic Seoul, the capital of South Korea.'}
{'id': 460, 'country_id': 174, 'city': 'Marrakesh', 'latitude': 31.6315, 'longitude': -7.9999, 'description': 'Marrakesh allures visitors with its ancient medina quarter, lively Djemaa el-Fna square, and colorful souks filled with crafts and food.'}
{'id': 461, 'country_id': 93, 'city': 'Cartagena', 'latitude': 10.3997, 'longitude': -75.5144, 'description': "Cartagena's colonial walled Old Town features pastel-hued, bougainvillea-draped architecture and lively plazas perfect for people watching."}
{'id': 462, 'country_id': 247, 'city': 'Hanoi', 'latitude': 21.0244, 'longitude': 105.8412, 'description': "Vietnam's charming capital, Hanoi features ancient temples, colonial architecture, bustling street markets and delectable Vietnamese cuisine."}
{'id': 464, 'country_id': 133, 'city': 'Bali', 'latitude': -8.3405, 'longitude': 115.092, 'description': "Known as the 'Island of the Gods,' tropical Bali lures beachgoers, surfers, and yogis with its lush rice paddies, jungle, and iconic cliffside temples."}
{'id': 465, 'country_id': 139, 'city': 'Montego Bay', 'latitude': 18.4655, 'longitude': -77.9113, 'description': "Famous for its white sand beaches and vibrant reggae music scene, Montego Bay is one of Jamaica's top resort destinations."}
{'id': 466, 'country_id': 181, 'city': 'Wellington', 'latitude': -41.28646, 'longitude': 174.776236, 'description': "New Zealand's capital city, known for its harbourside setting and Te Papa museum."}
{'id': 467, 'country_id': 241, 'city': 'San Francisco', 'latitude': 37.7749295, 'longitude': -122.4194155, 'description': 'Iconic city known for its hilly landscape, cable cars, and the Golden Gate Bridge.'}
{'id': 468, 'country_id': 241, 'city': 'Los Angeles', 'latitude': 34.0522342, 'longitude': -118.2436849, 'description': 'Sprawling Southern California city famed for Hollywood entertainment industry.'}
{'id': 469, 'country_id': 241, 'city': 'Chicago', 'latitude': 41.8781136, 'longitude': -87.6297982, 'description': 'Midwestern metropolis along Lake Michigan known for its skyscrapers, museums, and Chicago-style hot dogs.'}
{'id': 470, 'country_id': 241, 'city': 'Miami', 'latitude': 25.7616798, 'longitude': -80.1917902, 'description': 'Southeastern Florida city known for its beaches, Latino culture, and Art Deco architecture in South Beach.'}
{'id': 471, 'country_id': 241, 'city': 'Boston', 'latitude': 42.3600825, 'longitude': -71.0588801, 'description': 'Historic New England city founded in 1630 known for its colonial-era sites like Faneuil Hall.'}
{'id': 472, 'country_id': 241, 'city': 'Seattle', 'latitude': 47.6062095, 'longitude': -122.3320708, 'description': 'Port city in the Pacific Northwest known for its coffee culture, tech industry, and rainy climate.'}
{'id': 473, 'country_id': 241, 'city': 'Las Vegas', 'latitude': 36.1699412, 'longitude': -115.1398296, 'description': 'City in the Nevada desert famed for casinos, entertainment, and nightlife.'}
{'id': 474, 'country_id': 241, 'city': 'San Diego', 'latitude': 32.715738, 'longitude': -117.1610838, 'description': 'Southern California coastal city known for beaches, parks, Spanish colonial architecture and the San Diego Zoo.'}
{'id': 475, 'country_id': 132, 'city': 'Pune', 'latitude': 18.5204, 'longitude': 73.8567, 'description': 'Pune is a city in western India known for its educational institutions, historical landmarks, and cultural heritage.'}
{'id': 476, 'country_id': 140, 'city': 'Yokohama', 'latitude': 35.4437, 'longitude': 139.638, 'description': 'Yokohama is a city in Kanagawa Prefecture, Japan, located near Tokyo. It is known for its scenic waterfront, diverse food scene, and historic sites.'}
{'id': 477, 'country_id': 140, 'city': 'Osaka', 'latitude': 34.6937, 'longitude': 135.5023, 'description': "Osaka is a major city in Japan's Kansai region, recognized for its modern architecture, vibrant street life, and renowned food culture."}
{'id': 478, 'country_id': 140, 'city': 'Nagoya', 'latitude': 35.1815, 'longitude': 136.9066, 'description': 'Nagoya is the largest city in the Chubu region of Japan. It is known for its automotive industry, historical landmarks, and cultural attractions.'}
{'id': 479, 'country_id': 140, 'city': 'Sapporo', 'latitude': 43.0621, 'longitude': 141.3544, 'description': "Sapporo is the capital city of Hokkaido, Japan's northernmost island. It is famous for its annual snow festival, ski resorts, and beer."}
{'id': 480, 'country_id': 140, 'city': 'Fukuoka', 'latitude': 33.5904, 'longitude': 130.4017, 'description': 'Fukuoka is a vibrant city in southern Japan, renowned for its ancient temples, bustling shopping districts, and Hakata ramen.'}
{'id': 481, 'country_id': 140, 'city': 'Kyoto', 'latitude': 35.0116, 'longitude': 135.7681, 'description': 'Kyoto is a historic city in Japan known for its well-preserved temples, traditional wooden houses, and serene Zen gardens.'}
{'id': 482, 'country_id': 140, 'city': 'Hiroshima', 'latitude': 34.3853, 'longitude': 132.4553, 'description': 'Hiroshima is a city in southwestern Japan, famously associated with the tragic event of the atomic bombing in 1945. It now stands as a symbol of peace and reconciliation.'}
{'id': 483, 'country_id': 219, 'city': 'Malaga', 'latitude': 36.7213, 'longitude': -4.4214, 'description': "Malaga is a city on Spain's Costa del Sol, known for its beautiful beaches, ancient ruins, and being the birthplace of renowned artist Pablo Picasso."}
{'id': 484, 'country_id': 219, 'city': 'Bilbao', 'latitude': 43.263, 'longitude': -2.935, 'description': 'Bilbao is a city in northern Spain, famous for its avant-garde architecture, including the iconic Guggenheim Museum, as well as its rich Basque culture and cuisine.'}
{'id': 485, 'country_id': 219, 'city': 'Alicante', 'latitude': 38.3452, 'longitude': -0.481, 'description': 'Alicante is a coastal city in southeastern Spain, known for its beautiful beaches, historic castle, and lively promenade, the Explanada de España.'}
{'id': 486, 'country_id': 219, 'city': 'Zaragoza', 'latitude': 41.6488, 'longitude': -0.8891, 'description': 'Zaragoza is a city in northeastern Spain, renowned for its rich historical heritage, including the Basilica of Our Lady of the Pillar and the Aljafería Palace.'}
{'id': 487, 'country_id': 120, 'city': 'Heidelberg', 'latitude': 49.4093582, 'longitude': 8.694724, 'description': 'Known for its beautiful castle ruins, charming Old Town, and prestigious university.'}
{'id': 488, 'country_id': 120, 'city': 'Hamburg', 'latitude': 53.550341, 'longitude': 10.000654, 'description': 'A lively port city with a rich maritime history and picturesque lakes and canals.'}
{'id': 489, 'country_id': 120, 'city': 'Rothenburg ob der Tauber', 'latitude': 49.3771899, 'longitude': 10.1788809, 'description': 'A medieval town preserved with half-timbered houses, town walls, and cobblestone streets.'}
{'id': 490, 'country_id': 180, 'city': 'Haarlem', 'latitude': 52.383705750000004, 'longitude': 4.643559696559635, 'description': 'Discover the charming city, visit the Frans Hals Museum, explore the historical architecture, and relax in the beautiful gardens.'}
{'id': 491, 'country_id': 180, 'city': 'Groningen', 'latitude': 53.2190652, 'longitude': 6.5680077, 'description': 'Experience the youthful energy of the university city, visit Groninger Museum, stroll through the historic center, and try local specialties.'}
{'id': 492, 'country_id': 180, 'city': 'Rotterdam', 'latitude': 51.9244424, 'longitude': 4.47775, 'description': 'Experience the modern architecture, visit the Markthal, take a harbor tour, and explore the lively cultural scene.'}
{'id': 493, 'country_id': 180, 'city': 'The Hague', 'latitude': 52.0799838, 'longitude': 4.3113461, 'description': 'Visit the political capital, explore iconic landmarks like Binnenhof and Peace Palace, and relax at the beautiful Scheveningen beach.'}
{'id': 494, 'country_id': 180, 'city': 'Maastricht', 'latitude': 50.8512438, 'longitude': 5.6909768, 'description': 'Explore the oldest city in Netherlands, visit Maastricht Underground, stroll along the Maas River, and enjoy the cozy atmosphere.'}
{'id': 495, 'country_id': 180, 'city': 'Utrecht', 'latitude': 52.080985600000005, 'longitude': 5.12768396945229, 'description': 'Discover the charming canals, visit the Dom Tower, explore the historic city center, and enjoy the vibrant nightlife.'}
{'id': 496, 'country_id': 100, 'city': 'Český Krumlov', 'latitude': 48.805114950000004, 'longitude': 14.316197791106362, 'description': 'Visit the picturesque medieval town, a UNESCO World Heritage Site, with its well-preserved old town and a beautiful castle.'}
{'id': 497, 'country_id': 100, 'city': 'Kutná Hora', 'latitude': 49.9486561, 'longitude': 15.2681123, 'description': 'Visit the historical town known for its Gothic architecture, including the famous Bone Church.'}
{'id': 498, 'country_id': 100, 'city': 'Karlovy Vary', 'latitude': 50.2306216, 'longitude': 12.8701437, 'description': 'Enjoy the famous spa town known for its thermal baths and beautiful architecture.'}
{'id': 499, 'country_id': 100, 'city': 'Olomouc', 'latitude': 49.5940567, 'longitude': 17.251143, 'description': 'Explore the city with its impressive architecture, charming town square, and the UNESCO-listed Holy Trinity Column.'}
{'id': 500, 'country_id': 100, 'city': 'Brno', 'latitude': 49.1922443, 'longitude': 16.6113382, 'description': 'Discover the second largest city of Czech Republic, known for its vibrant nightlife and rich history.'}
{'id': 501, 'country_id': 100, 'city': 'Cesky Krumlov', 'latitude': 48.805114950000004, 'longitude': 14.316197791106362, 'description': 'Cesky Krumlov is a UNESCO World Heritage Site and a picturesque town located in southern Bohemia. With its well-preserved medieval old town, stunning castle, and enchanting streets, Cesky Krumlov offers a unique atmosphere. Visit the Castle Complex, take a leisurely stroll along the Vltava River, and explore the narrow cobblestone streets filled with charming shops and cafes. Spend 3 days in Cesky Krumlov to experience its magic.'}
{'id': 502, 'country_id': 100, 'city': 'Prague', 'latitude': 50.0874654, 'longitude': 14.4212535, 'description': 'Prague, the capital city of Czech Republic, is known for its stunning architecture, medieval old town, and historic Prague Castle.'}
{'id': 503, 'country_id': 100, 'city': 'Kutna Hora', 'latitude': 49.9486561, 'longitude': 15.2681123, 'description': "A UNESCO World Heritage site with attractions like the Sedlec Ossuary and St. Barbara's Church."}
{'id': 504, 'country_id': 66, 'city': 'Innsbruck', 'latitude': 47.2654296, 'longitude': 11.3927685, 'description': 'Innsbruck is surrounded by the breathtaking scenery of the Austrian Alps. Spend your days skiing, hiking, or simply enjoying the stunning landscapes. Visit the famous Golden Roof, explore the Imperial Palace, and take a ride on the Hungerburgbahn funicular for panoramic views.'}
{'id': 505, 'country_id': 66, 'city': 'Salzburg', 'latitude': 47.7981346, 'longitude': 13.0464806, 'description': "Salzburg is a picturesque city famous for being the birthplace of Wolfgang Amadeus Mozart. Visit the magnificent Salzburg Cathedral, explore the historic Old Town, and take a trip to the Hohensalzburg Fortress for stunning panoramic views. Don't forget to indulge in some delicious Mozartkugel chocolate!"}
{'id': 506, 'country_id': 66, 'city': 'Graz', 'latitude': 47.0708678, 'longitude': 15.4382786, 'description': "Graz is a vibrant and cultural city known for its beautiful old town. Marvel at the iconic Clock Tower and the stunning Graz Cathedral. Explore the Schlossberg hill with its park and enjoy the views from the top. Don't forget to try some delicious Styrian cuisine during your stay."}
{'id': 507, 'country_id': 114, 'city': 'Taveuni', 'latitude': -16.8261493, 'longitude': -179.9354607, 'description': 'Experience the breathtaking beauty of Taveuni Island, hike to Tavoro Waterfalls, go diving or snorkeling in the Somosomo Strait, and explore the Bouma National Heritage Park.'}
{'id': 508, 'country_id': 114, 'city': 'Suva', 'latitude': -18.1415884, 'longitude': 178.4421662, 'description': 'Discover the capital city of Fiji, visit the Fiji Museum, experience the vibrant local markets, and explore Colo-i-Suva Forest Park.'}
{'id': 509, 'country_id': 114, 'city': 'Savusavu', 'latitude': -16.7802184, 'longitude': 179.3328955, 'description': 'Relax at the idyllic town of Savusavu, enjoy hot springs and thermal mud pools, visit local markets, and take part in traditional Fijian ceremonies.'}
{'id': 510, 'country_id': 114, 'city': 'Denarau', 'latitude': -17.7701282, 'longitude': 177.3698171, 'description': 'Denarau is a resort island near Nadi, offering luxurious accommodations and a variety of recreational activities. Spend your days playing golf, indulging in spa treatments, or enjoying water sports. Take a day trip to the beautiful Castaway Island or cruise along the breathtaking coastline.'}
{'id': 511, 'country_id': 114, 'city': 'Pacific Harbour', 'latitude': -18.2381663, 'longitude': 178.0763122, 'description': "Pacific Harbour is known as the 'Adventure Capital' of Fiji. Experience thrilling activities like zip-lining, shark diving, and jet skiing. Explore the stunning Beqa Lagoon and enjoy the laid-back atmosphere of this picturesque town."}
{'id': 512, 'country_id': 241, 'city': 'New York City', 'latitude': 40.7128, 'longitude': -74.006, 'description': 'New York City comprises 5 boroughs sitting where the Hudson River meets the Atlantic Ocean. At its core is Manhattan, a densely populated borough that’s among the world’s major commercial, financial and cultural centers.'}
{'id': 513, 'country_id': 88, 'city': 'Toronto', 'latitude': 43.6532, 'longitude': -79.3832, 'description': "Toronto, the capital of Ontario, is Canada's largest city and a hub of trade and finance. It has a cosmopolitan atmosphere and a modern downtown with iconic skyscrapers."}
{'id': 514, 'country_id': 239, 'city': 'Dubai', 'latitude': 25.2048, 'longitude': 55.2708, 'description': 'Dubai is a city in the United Arab Emirates known for luxury shopping, modern architecture and a lively nightlife scene. Burj Khalifa, an 830m-tall tower, dominates the skyscraper-filled skyline.'}
{'id': 515, 'country_id': 115, 'city': 'Helsinki', 'latitude': 60.1699, 'longitude': 24.9384, 'description': "Helsinki, Finland's southern capital, sits on a peninsula in the Gulf of Finland. Its central avenue, Mannerheimintie, is flanked by institutions including the National Museum."}
{'id': 516, 'country_id': 212, 'city': 'Singapore', 'latitude': 1.3521, 'longitude': 103.8198, 'description': 'Singapore, an island city-state off southern Malaysia, is a global financial center with a tropical climate and multicultural population.'}
{'id': 517, 'country_id': 223, 'city': 'Stockholm', 'latitude': 59.3294, 'longitude': 18.0686, 'description': 'Built on 14 islands, Stockholm, the capital of Sweden, encompasses medieval lanes, modern architecture and green spaces.'}
{'id': 518, 'country_id': 130, 'city': 'Budapest', 'latitude': 47.4979, 'longitude': 19.0402, 'description': 'Budapest, Hungary’s capital, is bisected by the River Danube. Its 19th-century Chain Bridge connects the hilly Buda district with flat Pest.'}
{'id': 519, 'country_id': 195, 'city': 'Warsaw', 'latitude': 52.2297, 'longitude': 21.0122, 'description': "Warsaw is the sprawling capital of Poland. Its widely varied architecture reflects the city's long, turbulent history, from Gothic churches to Soviet-era blocks."}
{'id': 520, 'country_id': 186, 'city': 'Oslo', 'latitude': 59.9129, 'longitude': 10.7461, 'description': "Oslo, the capital of Norway, sits on the country’s southern coast at the head of the Oslofjord. It's known for its green spaces and museums."}
{'id': 521, 'country_id': 93, 'city': 'Bogota', 'latitude': 4.71099, 'longitude': -74.0721, 'description': 'Bogotá is the capital and largest city of Colombia, located at an elevation of 2,640 meters in the Cordillera Oriental of the Andes.'}
{'id': 522, 'country_id': 246, 'city': 'Caracas', 'latitude': 10.4806, 'longitude': -66.9036, 'description': "Caracas, Venezuela's capital and largest city, sits on a high plateau in the northern part of the country. It has many cultural sites and several notable museums."}
{'id': 523, 'country_id': 217, 'city': 'Johannesburg', 'latitude': -26.2041, 'longitude': 28.0473, 'description': "Johannesburg is South Africa's largest city, in the mineral-rich Witwatersrand range of hills. Its gold and diamond trades fueled growth in the 19th and early 20th centuries."}
{'id': 524, 'country_id': 143, 'city': 'Nairobi', 'latitude': -1.2921, 'longitude': 36.8219, 'description': "Nairobi is the capital and largest city of Kenya. It's set on the Eastern edge of the Great Rift Valley and known as a commercial hub for East and Central Africa."}
{'id': 525, 'country_id': 174, 'city': 'Casablanca', 'latitude': 33.5976, 'longitude': -7.6189, 'description': "Casablanca is a port city and commercial hub in western Morocco. The city's French colonial legacy is seen in its downtown Mauresque architecture."}
{'id': 526, 'country_id': 152, 'city': 'Beirut', 'latitude': 33.8938, 'longitude': 35.5018, 'description': 'Beirut is the capital and largest city of Lebanon. As there is no official census data, the source of population data is the United Nations.'}
{'id': 527, 'country_id': 132, 'city': 'New Delhi', 'latitude': 28.6139, 'longitude': 77.209, 'description': 'New Delhi is the capital city of India. It is home to important government buildings including Rashtrapati Bhavan, the parliament house, and India Gate.'}
{'id': 528, 'country_id': 194, 'city': 'Manila', 'latitude': 14.5995, 'longitude': 120.9842, 'description': 'Manila is the densely populated capital of the Philippines, known for its bustling metropolitan atmosphere and mix of colonial, modern and indigenous architecture.'}
{'id': 529, 'country_id': 133, 'city': 'Jakarta', 'latitude': -6.2088, 'longitude': 106.8456, 'description': "Jakarta is Indonesia's massive, sprawling capital city, and also happens to be the largest city proper in the world by population."}
{'id': 530, 'country_id': 161, 'city': 'Kuala Lumpur', 'latitude': 3.1502, 'longitude': 101.6954, 'description': 'Kuala Lumpur is the capital city of Malaysia, boasting gleaming skyscrapers, colonial architecture, charming locals, and a myriad of natural attractions.'}
{'id': 531, 'country_id': 241, 'city': 'Houston', 'latitude': 29.7604, 'longitude': -95.3698, 'description': "Houston is a large metropolis in Texas, extending to Galveston Bay. It's closely linked with the Space Center Houston, the coastal visitor center at NASA's astronaut training and flight control complex."}
{'id': 532, 'country_id': 241, 'city': 'Dallas', 'latitude': 32.7767, 'longitude': -96.797, 'description': "Dallas, a modern metropolis in north Texas, is a commercial and cultural hub of the region. Downtown's Sixth Floor Museum at Dealey Plaza commemorates John F. Kennedy's assassination in 1963."}
{'id': 533, 'country_id': 241, 'city': 'Atlanta', 'latitude': 33.749, 'longitude': -84.388, 'description': 'Atlanta, the capital of Georgia, is a sprawling city with three urban skylines rising in different directions from the downtown area.'}
{'id': 534, 'country_id': 241, 'city': 'Denver', 'latitude': 39.7392, 'longitude': -104.9903, 'description': 'Denver, the capital of Colorado, is an American metropolis dating to the Old West era. Larimer Square, the city’s oldest block, still features landmark 19th-century buildings that house restaurants and galleries.'}
{'id': 535, 'country_id': 241, 'city': 'Phoenix', 'latitude': 33.4484, 'longitude': -112.074, 'description': 'Phoenix, the capital of Arizona, is a sprawling Southwestern metropolis known for its year-round sun and warm temperatures.'}
{'id': 536, 'country_id': 241, 'city': 'Portland', 'latitude': 45.5122, 'longitude': -122.6587, 'description': "Portland, Oregon's largest city, sits on the Columbia and Willamette rivers, in the shadow of snow-capped Mount Hood."}
{'id': 537, 'country_id': 241, 'city': 'Philadelphia', 'latitude': 39.9526, 'longitude': -75.1652, 'description': "Philadelphia, Pennsylvania's largest city, is notable for its rich history, on display at the Liberty Bell, Independence Hall and other American Revolutionary sites."}
{'id': 538, 'country_id': 88, 'city': 'Montreal', 'latitude': 45.5017, 'longitude': -73.5673, 'description': "Montreal is the largest city in Canada's Québec province. It’s set on an island in the Saint Lawrence River and named after Mt. Royal, the triple-peaked hill at its heart."}
{'id': 539, 'country_id': 88, 'city': 'Calgary', 'latitude': 51.0486, 'longitude': -114.0708, 'description': 'Calgary, an Albertan city with frontier-era architecture, sits where the Canadian Prairies meet the Rocky Mountains.'}
{'id': 540, 'country_id': 88, 'city': 'Ottawa', 'latitude': 45.4215, 'longitude': -75.6972, 'description': "Ottawa, Canada's capital, sits on the border between the provinces of Ontario and Quebec, on the Ottawa River."}
{'id': 541, 'country_id': 88, 'city': 'Edmonton', 'latitude': 53.5461, 'longitude': -113.4938, 'description': 'Edmonton is the capital of the Canadian province of Alberta. Edmonton is located on the North Saskatchewan River and is the center of the Edmonton Metropolitan Region.'}
{'id': 542, 'country_id': 88, 'city': 'Quebec City', 'latitude': 46.8139, 'longitude': -71.2081, 'description': "Québec City, capital of Canada's Québec province, sits on the Saint Lawrence River. Dating to 1608, it has a preserved Old Town, Place Royale, with stone buildings and narrow streets."}
{'id': 543, 'country_id': 65, 'city': 'Adelaide', 'latitude': -34.9284, 'longitude': 138.6007, 'description': 'Adelaide is the capital city of the state of South Australia, and the fifth-most populous city of Australia.'}
{'id': 544, 'country_id': 181, 'city': 'Auckland', 'latitude': -36.8485, 'longitude': 174.7633, 'description': "Auckland, based around 2 large harbors, is a major city in the north of New Zealand's North Island. In the center is the iconic Sky Tower, an observation and telecommunications tower."}
{'id': 545, 'country_id': 181, 'city': 'Christchurch', 'latitude': -43.5256, 'longitude': 172.6362, 'description': "Christchurch is the largest city in the South Island of New Zealand, and the country's third-most populous urban area."}
{'id': 546, 'country_id': 240, 'city': 'York', 'latitude': 53.9590555, 'longitude': -1.0815361, 'description': 'Step back in time in the enchanting city of York. Explore the well-preserved city walls, visit the magnificent York Minster, and wander through the quaint Shambles with its timber-framed buildings.'}
{'id': 547, 'country_id': 240, 'city': 'Manchester', 'latitude': 53.4794892, 'longitude': -2.2451148, 'description': 'Experience the energetic city of Manchester. Enjoy its vibrant music scene, visit the impressive Manchester Cathedral, and explore the fascinating exhibits at the Science and Industry Museum.'}
{'id': 548, 'country_id': 172, 'city': 'Ulaanbaatar', 'latitude': 47.9184676, 'longitude': 106.9177016, 'description': 'Capital city of Mongolia, known for its Buddhist temples and traditional nomadic culture.'}
{'id': 549, 'country_id': 172, 'city': 'Khorgo', 'latitude': 48.1527481, 'longitude': 99.8982145, 'description': 'Explore Khorgo-Terkhiin Tsagaan Nuur National Park, hike up Khorgo volcano and visit the beautiful Terkhiin Tsagaan Lake.'}
{'id': 550, 'country_id': 172, 'city': 'Altai', 'latitude': 44.110185, 'longitude': 95.82113987647156, 'description': 'Explore Altai Tavan Bogd National Park, climb to the highest peak in Mongolia, and visit the Kazakh nomads.'}
{'id': 551, 'country_id': 172, 'city': 'Kharkhorin', 'latitude': 47.192824, 'longitude': 102.8202229, 'description': 'Historic city and former capital of the Mongol Empire, visit Erdene Zuu monastery and explore the ancient ruins.'}
{'id': 552, 'country_id': 172, 'city': 'Tsetserleg', 'latitude': 48.93167115, 'longitude': 101.1982815355509, 'description': 'Visit the Zayain Gegeen Sum monastery and experience the local culture and traditional crafts.'}
{'id': 553, 'country_id': 172, 'city': 'Uvs', 'latitude': 49.6313887, 'longitude': 92.9558186, 'description': 'Discover Uvs Nuur Basin, a UNESCO World Heritage Site known for its scenery, biodiversity, and archaeological sites.'}
{'id': 554, 'country_id': 172, 'city': 'Tsenkher', 'latitude': 47.23594345, 'longitude': 101.78905303448924, 'description': 'Enjoy hot springs and experience traditional nomadic lifestyle by staying in a ger camp.'}
{'id': 555, 'country_id': 137, 'city': 'Nazareth', 'latitude': 32.7066301, 'longitude': 35.3048161, 'description': 'Visit the biblical city of Nazareth and explore its holy sites, including the Basilica of the Annunciation and the Church of St. Joseph. Immerse yourself in the rich cultural heritage of this diverse city.'}
{'id': 556, 'country_id': 137, 'city': 'Eilat', 'latitude': 29.5569348, 'longitude': 34.9497949, 'description': 'Head south to the resort city of Eilat, located on the shores of the Red Sea. Relax on the stunning beaches, go snorkeling or diving in the vibrant coral reefs, and enjoy various water sports and outdoor activities.'}
{'id': 557, 'country_id': 229, 'city': 'Koh Phangan', 'latitude': 9.734950300000001, 'longitude': 100.0305710845208, 'description': 'Experience the famous Full Moon Party, unwind on pristine beaches, and enjoy snorkeling or diving in the crystal clear waters.'}
{'id': 558, 'country_id': 136, 'city': 'Killarney', 'latitude': 52.059753650000005, 'longitude': -9.508080263729562, 'description': 'Discover the stunning landscapes of Killarney National Park, take a scenic drive on the Ring of Kerry, and explore Muckross House and Gardens.'}
{'id': 564, 'country_id': 124, 'city': 'Antigua', 'latitude': 14.5589875, 'longitude': -90.7333258, 'description': "Explore the charming streets and cobblestone alleys of Antigua, a UNESCO World Heritage site. Visit the Santa Catalina Arch, Santo Domingo Monastery, and the Central Park. Don't miss out on hiking up to Cerro de la Cruz for panoramic views of the city. Enjoy the vibrant local markets and try traditional Guatemalan cuisine."}
{'id': 565, 'country_id': 124, 'city': 'Lake Atitlán', 'latitude': 14.68014625, 'longitude': -91.18616099752487, 'description': 'Relax by the beautiful lake surrounded by volcanoes. Take a boat tour to visit the indigenous villages around the lake and go hiking in the surrounding hills.'}
{'id': 566, 'country_id': 124, 'city': 'Tikal', 'latitude': 17.22081485, 'longitude': -89.61701648617823, 'description': 'Visit the ancient Mayan ruins of Tikal and explore the vast archaeological site with its impressive pyramids and temples. Take a guided tour to learn about the history and significance of the ruins.'}
{'id': 567, 'country_id': 82, 'city': 'Varna', 'latitude': 43.2073873, 'longitude': 27.9166653, 'description': 'Coastal city with beautiful beaches and lively nightlife'}
{'id': 568, 'country_id': 100, 'city': 'Pilsen', 'latitude': 49.7477415, 'longitude': 13.3775249, 'description': "Visit the city of Pilsen, home to the world-famous Pilsner Urquell Brewery. Take a tour of the brewery, learn about the beer-making process, and sample some authentic Czech beer. Explore the historic center, including the Gothic St. Bartholomew's Cathedral."}
{'id': 569, 'country_id': 120, 'city': 'Frankfurt', 'latitude': 50.1109, 'longitude': 8.6821, 'description': 'Frankfurt is a major financial hub in Germany and home to the European Central Bank.'}
{'id': 570, 'country_id': 120, 'city': 'Stuttgart', 'latitude': 48.7758, 'longitude': 9.1829, 'description': 'Stuttgart is known as the cradle of the automobile and home to Mercedes-Benz and Porsche.'}
{'id': 571, 'country_id': 120, 'city': 'Düsseldorf', 'latitude': 51.2254, 'longitude': 6.7763, 'description': 'Düsseldorf is located on the River Rhine and known for its fashion industry and art scene.'}
{'id': 572, 'country_id': 120, 'city': 'Leipzig', 'latitude': 51.3396, 'longitude': 12.373, 'description': 'Leipzig has a long musical tradition and was home to Bach and Wagner.'}
{'id': 573, 'country_id': 66, 'city': 'Linz', 'latitude': 48.306, 'longitude': 14.2864, 'description': 'Linz is situated on the Danube River and known for its technology industry.'}
{'id': 574, 'country_id': 66, 'city': 'Klagenfurt', 'latitude': 46.6206, 'longitude': 14.3075, 'description': 'Klagenfurt is located on Wörthersee lake and known for its medieval old town.'}
{'id': 575, 'country_id': 224, 'city': 'Geneva', 'latitude': 46.2044, 'longitude': 6.143, 'description': 'Geneva is a global city and home to many international organizations including the United Nations and Red Cross.'}
{'id': 576, 'country_id': 224, 'city': 'Zurich', 'latitude': 47.3769, 'longitude': 8.5417, 'description': 'Zurich is the largest city in Switzerland and a major global financial center.'}
{'id': 577, 'country_id': 224, 'city': 'Basel', 'latitude': 47.5584, 'longitude': 7.5732, 'description': 'Basel is located on the Rhine River where Switzerland, France and Germany meet.'}
{'id': 578, 'country_id': 224, 'city': 'Lausanne', 'latitude': 46.5196, 'longitude': 6.6329, 'description': 'Lausanne is set on the shores of Lake Geneva and home to the Olympic Museum.'}
{'id': 579, 'country_id': 224, 'city': 'Bern', 'latitude': 46.948, 'longitude': 7.4481, 'description': 'Bern is the capital of Switzerland, set around a meander in the Aare River.'}
{'id': 580, 'country_id': 224, 'city': 'Lucerne', 'latitude': 47.0502, 'longitude': 8.3094, 'description': 'Lucerne is located on Lake Lucerne and home to the famous Chapel Bridge.'}
{'id': 581, 'country_id': 224, 'city': 'St. Gallen', 'latitude': 47.4239, 'longitude': 9.3741, 'description': 'St. Gallen is known for its medieval Abbey of St. Gall and textile industry.'}
{'id': 582, 'country_id': 199, 'city': 'Saint Petersburg', 'latitude': 59.939, 'longitude': 30.3158, 'description': 'Saint Petersburg was founded by Peter the Great and known for its grand palaces.'}
{'id': 583, 'country_id': 199, 'city': 'Novosibirsk', 'latitude': 55.0415, 'longitude': 82.9346, 'description': 'Novosibirsk is the third most populous city in Russia, located in Siberia.'}
{'id': 584, 'country_id': 199, 'city': 'Yekaterinburg', 'latitude': 56.8389, 'longitude': 60.6056, 'description': 'Yekaterinburg is a major industrial and cultural center located in the Ural Mountains region.'}
{'id': 585, 'country_id': 199, 'city': 'Nizhny Novgorod', 'latitude': 56.3269, 'longitude': 44.002, 'description': 'Nizhny Novgorod sits at the confluence of the Volga and Oka rivers.'}
{'id': 586, 'country_id': 199, 'city': 'Kazan', 'latitude': 55.8304, 'longitude': 49.0621, 'description': 'Kazan is the capital of the Republic of Tatarstan and center of Tatar culture.'}
{'id': 587, 'country_id': 199, 'city': 'Chelyabinsk', 'latitude': 55.154, 'longitude': 61.403, 'description': 'Chelyabinsk is an industrial city in the Ural Mountains known for its meteor strike in 2013.'}
{'id': 588, 'country_id': 199, 'city': 'Samara', 'latitude': 53.1956, 'longitude': 50.101, 'description': 'Samara is a large industrial hub located on the Volga River.'}
{'id': 589, 'country_id': 234, 'city': 'Ankara', 'latitude': 39.9333, 'longitude': 32.8597, 'description': 'Ankara is the capital of Turkey and home to the government and foreign embassies.'}
{'id': 590, 'country_id': 234, 'city': 'Izmir', 'latitude': 38.4237, 'longitude': 27.1428, 'description': "Izmir is a major port city on Turkey's Aegean coast known for its long waterfront promenade."}
{'id': 591, 'country_id': 234, 'city': 'Bursa', 'latitude': 40.1831, 'longitude': 29.0567, 'description': 'Bursa was the first capital of the Ottoman Empire and is now a major industrial center.'}
{'id': 592, 'country_id': 234, 'city': 'Adana', 'latitude': 37.0, 'longitude': 35.3213, 'description': 'Adana is an agricultural and commercial hub located on the Seyhan River.'}
{'id': 593, 'country_id': 234, 'city': 'Gaziantep', 'latitude': 37.0662, 'longitude': 37.3833, 'description': 'Gaziantep is famous for its cuisine, baklava, and production of carpets and leather.'}
{'id': 594, 'country_id': 234, 'city': 'Konya', 'latitude': 37.8704, 'longitude': 32.4846, 'description': 'Konya is an agricultural and religious city, home to the tomb of Rumi.'}
{'id': 595, 'country_id': 234, 'city': 'Antalya', 'latitude': 36.9128, 'longitude': 30.6937, 'description': 'Antalya is a resort city on the Turkish Riviera known for its beaches and nightlife.'}
{'id': 596, 'country_id': 92, 'city': 'Shanghai', 'latitude': 31.2304, 'longitude': 121.4737, 'description': 'Shanghai is a global financial hub and the largest city in China.'}
{'id': 597, 'country_id': 92, 'city': 'Guangzhou', 'latitude': 23.1291, 'longitude': 113.2644, 'description': 'Guangzhou is a major port and transportation hub located in southern China.'}
{'id': 598, 'country_id': 92, 'city': 'Shenzhen', 'latitude': 22.5431, 'longitude': 114.0579, 'description': 'Shenzhen is a modern metropolis known for its technology sector located adjacent to Hong Kong.'}
{'id': 599, 'country_id': 92, 'city': 'Chengdu', 'latitude': 30.5728, 'longitude': 104.0668, 'description': 'Chengdu is the capital of Sichuan province known for its giant panda breeding centers.'}
{'id': 600, 'country_id': 92, 'city': 'Hangzhou', 'latitude': 30.274, 'longitude': 120.155, 'description': 'Hangzhou is renowned for its natural beauty, West Lake, tea plantations and silk industry.'}
{'id': 601, 'country_id': 92, 'city': 'Wuhan', 'latitude': 30.5928, 'longitude': 114.3055, 'description': 'Wuhan is the largest city in central China and a major transportation hub.'}
{'id': 602, 'country_id': 92, 'city': 'Tianjin', 'latitude': 39.1422, 'longitude': 117.1764, 'description': 'Tianjin is a major port city located southeast of Beijing on the coast.'}
{'id': 603, 'country_id': 252, 'city': 'Busan', 'latitude': 35.1796, 'longitude': 129.0756, 'description': 'Busan is a coastal city known for its beaches, seafood and temple stays.'}
{'id': 604, 'country_id': 252, 'city': 'Incheon', 'latitude': 37.4561, 'longitude': 126.7052, 'description': 'Incheon is a port city and site of the Incheon International Airport serving Seoul.'}
{'id': 605, 'country_id': 252, 'city': 'Daegu', 'latitude': 35.8714, 'longitude': 128.6014, 'description': 'Daegu is an industrial transportation hub in the southeast region of Korea.'}
{'id': 606, 'country_id': 252, 'city': 'Daejeon', 'latitude': 36.3504, 'longitude': 127.3845, 'description': 'Daejeon is a hub of science, research and technology located in central South Korea.'}
{'id': 607, 'country_id': 252, 'city': 'Gwangju', 'latitude': 35.1595, 'longitude': 126.8526, 'description': 'Gwangju is a city in the agricultural southwestern region of South Korea.'}
{'id': 608, 'country_id': 252, 'city': 'Ulsan', 'latitude': 35.5391, 'longitude': 129.3117, 'description': 'Ulsan is an industrial port city known for shipbuilding, automobile and petrochemical production.'}
{'id': 609, 'country_id': 122, 'city': 'Thessaloniki', 'latitude': 40.64, 'longitude': 22.9444, 'description': 'Thessaloniki is the second largest city in Greece and important port on the Thermaic Gulf.'}
{'id': 610, 'country_id': 122, 'city': 'Patras', 'latitude': 38.2444, 'longitude': 21.7361, 'description': "Patras is Greece's third largest city and main port connecting the country to Italy and the Adriatic Sea."}
{'id': 611, 'country_id': 122, 'city': 'Heraklion', 'latitude': 35.3387, 'longitude': 25.1442, 'description': 'Heraklion is the largest city on the island of Crete and capital of the region.'}
{'id': 612, 'country_id': 122, 'city': 'Larissa', 'latitude': 39.6336, 'longitude': 22.4167, 'description': 'Larissa is the capital and largest city of the Thessaly region in central Greece.'}
{'id': 613, 'country_id': 122, 'city': 'Ioannina', 'latitude': 39.6677, 'longitude': 20.8444, 'description': 'Ioannina is a city in Epirus known for its well-preserved old town and proximity to scenic Lake Pamvotida.'}
{'id': 614, 'country_id': 122, 'city': 'Volos', 'latitude': 39.3672, 'longitude': 22.9444, 'description': 'Volos is a coastal port city in Thessaly situated at the foot of Mount Pelion.'}
{'id': 615, 'country_id': 180, 'city': 'Eindhoven', 'latitude': 51.4416, 'longitude': 5.4697, 'description': 'Eindhoven is a technology and design hub in the southern Netherlands known as the birthplace of Philips electronics.'}
{'id': 616, 'country_id': 180, 'city': 'Tilburg', 'latitude': 51.565, 'longitude': 5.0919, 'description': 'Tilburg is an industrial and educational center in North Brabant province.'}
{'id': 617, 'country_id': 100, 'city': 'Ostrava', 'latitude': 49.8203, 'longitude': 18.2625, 'description': 'Ostrava is an industrial city in the northeast known for coal mining and steel production.'}
{'id': 618, 'country_id': 100, 'city': 'Plzen', 'latitude': 49.7475, 'longitude': 13.3775, 'description': 'Plzen is known as the home of the Pilsner beer brand and Škoda engineering works.'}
{'id': 619, 'country_id': 100, 'city': 'Liberec', 'latitude': 50.7607, 'longitude': 15.0568, 'description': 'Liberec is a city in the Jizera Mountains known for winter sports and textile production.'}
{'id': 620, 'country_id': 100, 'city': 'Hradec Kralove', 'latitude': 50.2093, 'longitude': 15.8341, 'description': 'Hradec Králové is an industrial and university city located on the confluence of the Elbe and Orlice rivers.'}
{'id': 621, 'country_id': 115, 'city': 'Espoo', 'latitude': 60.205, 'longitude': 24.655, 'description': "Espoo is Finland's second largest city and part of the Helsinki metropolitan area."}
{'id': 622, 'country_id': 115, 'city': 'Tampere', 'latitude': 61.4989, 'longitude': 23.7609, 'description': 'Tampere is a university city situated between two lakes in southern Finland.'}
{'id': 623, 'country_id': 115, 'city': 'Vantaa', 'latitude': 60.295, 'longitude': 25.035, 'description': 'Vantaa is part of the Helsinki metropolitan area and home to Helsinki Airport.'}
{'id': 624, 'country_id': 115, 'city': 'Turku', 'latitude': 60.4518, 'longitude': 22.2654, 'description': 'Turku is located on the southwest coast and was the original capital and oldest city in Finland.'}
{'id': 625, 'country_id': 115, 'city': 'Oulu', 'latitude': 65.0128, 'longitude': 25.4702, 'description': 'Oulu is the largest city in northern Finland and center of technology and education.'}
{'id': 626, 'country_id': 115, 'city': 'Lahti', 'latitude': 60.9794, 'longitude': 25.6586, 'description': 'Lahti is a city in southern Finland known for its winter sports, ski jumping hills and forests.'}
{'id': 627, 'country_id': 229, 'city': 'Pattaya', 'latitude': 12.923, 'longitude': 100.879, 'description': 'Pattaya is a resort city on the Gulf of Thailand known for its beaches and vibrant nightlife.'}
{'id': 628, 'country_id': 229, 'city': 'Samui', 'latitude': 9.5358, 'longitude': 100.6028, 'description': 'Koh Samui is an island in the Gulf of Thailand known for its palm-fringed beaches, coconut groves and diving.'}
{'id': 629, 'country_id': 223, 'city': 'Gothenburg', 'latitude': 57.7072, 'longitude': 11.9746, 'description': "Gothenburg is a port city on Sweden's west coast and home to Scandinavia's largest port."}
{'id': 630, 'country_id': 223, 'city': 'Malmo', 'latitude': 55.6051, 'longitude': 13.0007, 'description': 'Malmö is located in southern Sweden across a strait from Copenhagen, Denmark.'}
{'id': 631, 'country_id': 223, 'city': 'Uppsala', 'latitude': 59.8585, 'longitude': 17.6389, 'description': 'Uppsala is a university town situated 40 miles north of Stockholm.'}
{'id': 632, 'country_id': 223, 'city': 'Vasteras', 'latitude': 59.6106, 'longitude': 16.5543, 'description': 'Västerås is located on Lake Mälaren and home to major employers like ABB and Bombardier.'}
{'id': 633, 'country_id': 223, 'city': 'Orebro', 'latitude': 59.2742, 'longitude': 15.2069, 'description': 'Örebro lies on the Svartån river in central southern Sweden and has an intact old town.'}
{'id': 634, 'country_id': 223, 'city': 'Linkoping', 'latitude': 58.4107, 'longitude': 15.6219, 'description': 'Linköping is a city in southern Sweden known for its cathedral, castle and university.'}
{'id': 635, 'country_id': 101, 'city': 'Odense', 'latitude': 55.3902, 'longitude': 10.4185, 'description': 'Odense is the birthplace of Hans Christian Andersen and located on the island of Funen.'}
{'id': 636, 'country_id': 101, 'city': 'Esbjerg', 'latitude': 55.4767, 'longitude': 8.4529, 'description': "Esbjerg is a seaport on Denmark's west coast and center for shipping, fishing, and offshore oil and gas."}
{'id': 637, 'country_id': 101, 'city': 'Randers', 'latitude': 56.4621, 'longitude': 10.0372, 'description': 'Randers is a market town in central Jutland near the Gudenå River known for its medieval half-timbered houses.'}
{'id': 638, 'country_id': 101, 'city': 'Kolding', 'latitude': 55.4667, 'longitude': 9.5167, 'description': 'Kolding is located in central Denmark on the fjord of the same name and features a royal castle and museum.'}
{'id': 639, 'country_id': 130, 'city': 'Debrecen', 'latitude': 47.5314, 'longitude': 21.6227, 'description': "Debrecen is Hungary's second largest city and called the 'Calvinist Rome' due to its Protestant history."}
{'id': 640, 'country_id': 130, 'city': 'Szeged', 'latitude': 46.2534, 'longitude': 20.146, 'description': 'Szeged is a cultural center and university town in southern Hungary known for its open-air performances and paprika.'}
{'id': 641, 'country_id': 130, 'city': 'Miskolc', 'latitude': 48.1, 'longitude': 20.7808, 'description': 'Miskolc is an industrial city in northeastern Hungary located at the foot of the Bükk Mountains.'}
{'id': 642, 'country_id': 130, 'city': 'Pecs', 'latitude': 46.0717, 'longitude': 18.2322, 'description': 'Pécs is a city in southern Hungary known for its Mediterranean climate, universities and historic architecture.'}
{'id': 643, 'country_id': 130, 'city': 'Gyor', 'latitude': 47.6833, 'longitude': 17.6333, 'description': 'Győr is located on the Danube River in northwest Hungary and has roots dating back to Roman times.'}
{'id': 644, 'country_id': 130, 'city': 'Nyiregyhaza', 'latitude': 47.9539, 'longitude': 21.7167, 'description': 'Nyíregyháza is a cultural center and county seat located on the northeast Great Plain of Hungary.'}
{'id': 645, 'country_id': 136, 'city': 'Waterford', 'latitude': 52.2593, 'longitude': -7.1086, 'description': "Waterford is Ireland's oldest city located at the mouth of the River Suir with medieval walls and Viking history."}
{'id': 646, 'country_id': 240, 'city': 'Birmingham', 'latitude': 52.4862, 'longitude': -1.8904, 'description': "Birmingham is a major city in England's West Midlands region and an industrial and transportation hub."}
{'id': 647, 'country_id': 240, 'city': 'Glasgow', 'latitude': 55.8656, 'longitude': -4.2518, 'description': "Glasgow is Scotland's largest city located on the River Clyde, once a shipbuilding center and now a cultural hub."}
{'id': 648, 'country_id': 240, 'city': 'Liverpool', 'latitude': 53.4084, 'longitude': -2.9916, 'description': 'Liverpool is a maritime city in northwest England and home of The Beatles and centuries of history stretching back to Medieval times.'}
{'id': 649, 'country_id': 240, 'city': 'Leeds', 'latitude': 53.8008, 'longitude': -1.5491, 'description': "Leeds is Northern England's largest city and the historic heart of Yorkshire's woollen industry."}
{'id': 650, 'country_id': 195, 'city': 'Krakow', 'latitude': 50.0614, 'longitude': 19.9383, 'description': 'Kraków is a southern Poland city near the border of the Czech Republic known for its well-preserved medieval core.'}
{'id': 651, 'country_id': 195, 'city': 'Lodz', 'latitude': 51.7574, 'longitude': 19.4585, 'description': "Łódź is Poland's third-largest city located in the central part of the country. It rose to prominence as a major textile production center."}
{'id': 652, 'country_id': 195, 'city': 'Wroclaw', 'latitude': 51.1079, 'longitude': 17.0385, 'description': 'Wrocław is located in southwest Poland on the Oder River with 12 islands and over 100 bridges connecting the parts of the city.'}
{'id': 653, 'country_id': 195, 'city': 'Poznan', 'latitude': 52.4063, 'longitude': 16.9252, 'description': 'Poznań is a city in west-central Poland with Renaissance old town architecture and many higher education institutions.'}
{'id': 654, 'country_id': 195, 'city': 'Gdansk', 'latitude': 54.352, 'longitude': 18.6466, 'description': 'Gdańsk is a port city on the Baltic coast known for its grand merchant houses and as the birthplace of the Solidarity movement.'}
{'id': 655, 'country_id': 195, 'city': 'Szczecin', 'latitude': 53.4285, 'longitude': 14.5528, 'description': 'Szczecin is located on the Oder River near the German border and features a large harbor and Gothic-style buildings.'}
{'id': 656, 'country_id': 196, 'city': 'Vila Nova de Gaia', 'latitude': 41.1279, 'longitude': -8.6054, 'description': 'Vila Nova de Gaia lies across the River Douro from Porto and is a hub for the port wine cellars and trade.'}
{'id': 657, 'country_id': 196, 'city': 'Amadora', 'latitude': 38.7536, 'longitude': -9.2368, 'description': 'Amadora is located northwest of Lisbon and part of the larger suburban area around the capital city.'}
{'id': 658, 'country_id': 196, 'city': 'Braga', 'latitude': 41.5506, 'longitude': -8.4225, 'description': 'Braga is an ancient city in northwest Portugal known as a religious center and for its churches, baroque architecture and universities.'}
{'id': 659, 'country_id': 196, 'city': 'Coimbra', 'latitude': 40.2044, 'longitude': -8.4192, 'description': "Coimbra is a riverfront city in central Portugal and home to one of Europe's oldest universities."}
{'id': 660, 'country_id': 196, 'city': 'Funchal', 'latitude': 32.6333, 'longitude': -16.9, 'description': "Funchal is the capital of Portugal's Madeira Islands, set along the Atlantic coast, and known for its seafood, wines and flowers."}
{'id': 661, 'country_id': 186, 'city': 'Bergen', 'latitude': 60.3913, 'longitude': 5.3221, 'description': "Bergen is a coastal city on Norway's west coast surrounded by mountains and fjords. It was a historic Hanseatic trading port."}
{'id': 662, 'country_id': 186, 'city': 'Stavanger', 'latitude': 58.9701, 'longitude': 5.7184, 'description': "Stavanger is located on Norway's southwest coast and known as the center of the country's oil industry."}
{'id': 663, 'country_id': 186, 'city': 'Trondheim', 'latitude': 63.4305, 'longitude': 10.395, 'description': "Trondheim is a city on Norway's west coast with roots back to Viking times. It has a historic wooden architecture and medieval Nidaros Cathedral."}
{'id': 664, 'country_id': 186, 'city': 'Drammen', 'latitude': 59.743, 'longitude': 10.2044, 'description': 'Drammen is a port city on Drammensfjord, 40 km southwest of Oslo. It is set among woods and hills with modern industry.'}
{'id': 665, 'country_id': 186, 'city': 'Fredrikstad', 'latitude': 59.2139, 'longitude': 10.9322, 'description': 'Fredrikstad is a city in southeast Norway near the Swedish border. It features a well-preserved fortress town founded in 1567.'}
{'id': 666, 'country_id': 186, 'city': 'Sandnes', 'latitude': 58.8451, 'longitude': 5.7357, 'description': "Sandnes is located south of Stavanger along the Gandsfjorden. It is Norway's fastest-growing city thanks to the North Sea oil boom since the 1960s."}
{'id': 667, 'country_id': 80, 'city': 'Fortaleza', 'latitude': -3.7319, 'longitude': -38.5428, 'description': 'Fortaleza is a coastal resort city in northeast Brazil known for its beaches, sand dunes and 16th century colonial fort.'}
{'id': 668, 'country_id': 80, 'city': 'Belo Horizonte', 'latitude': -19.919, 'longitude': -43.9368, 'description': 'Belo Horizonte is the sixth largest city in Brazil, situated in the interior southeast part of the country. It features planned avenues, parks and middle class residential areas.'}
{'id': 669, 'country_id': 168, 'city': 'Monterrey', 'latitude': 25.675, 'longitude': -100.3158, 'description': 'Monterrey is the third largest city in Mexico located in the north. It is a major industrial and commercial center with mountains and parks nearby for recreation.'}
{'id': 670, 'country_id': 168, 'city': 'Puebla City', 'latitude': 19.0414, 'longitude': -98.2063, 'description': 'Puebla City in south-central Mexico features nearly 1000 colonial buildings adorned with Talavera tile and vividly painted facades.'}
{'id': 671, 'country_id': 168, 'city': 'Tijuana', 'latitude': 32.5027, 'longitude': -117.0002, 'description': 'Tijuana is a city bordering San Diego with nightlife, cultural centers, craft breweries and restaurants serving Baja cuisine.'}
{'id': 672, 'country_id': 57, 'city': 'Kabul', 'latitude': 34.5260109, 'longitude': 69.1776838, 'description': 'Visit historical sites such as the Kabul Citadel, explore the National Museum of Afghanistan, and take a stroll in the beautiful Babur Gardens.'}
{'id': 673, 'country_id': 173, 'city': 'Budva', 'latitude': 42.290877, 'longitude': 18.839371, 'description': "Budva is a resort town on Montenegro's Adriatic coastline known for its medieval walled old town on a small peninsula."}
{'id': 674, 'country_id': 173, 'city': 'Kotor', 'latitude': 42.424661, 'longitude': 18.771237, 'description': "Kotor is a walled city on Montenegro's Adriatic coastline, surrounded by mountains and a dramatic bay."}
{'id': 675, 'country_id': 58, 'city': 'Vlore', 'latitude': 40.476658, 'longitude': 19.494392, 'description': "Vlorë is a port city on Albania's Adriatic coast with beaches, seaside promenades and a 15th century fortress."}
{'id': 676, 'country_id': 122, 'city': 'Corfu', 'latitude': 39.620568, 'longitude': 19.911432, 'description': 'Corfu is a Greek island in the Ionian Sea known for its Venetian architecture, beaches and verdant landscape.'}
{'id': 677, 'country_id': 122, 'city': 'Rhodes', 'latitude': 36.451069, 'longitude': 28.225429, 'description': 'Rhodes is a Greek island famous for the impressive medieval Old Town and Lindos Acropolis.'}
{'id': 678, 'country_id': 122, 'city': 'Crete', 'latitude': 35.240117, 'longitude': 24.809269, 'description': 'Crete is the largest Greek island located in the Mediterranean Sea, renowned for its beaches, mountains and archaeological sites.'}
{'id': 679, 'country_id': 122, 'city': 'Mykonos', 'latitude': 37.44771, 'longitude': 25.329309, 'description': 'Mykonos is a Greek island known for its whitewashed buildings, glamorous allure, nightlife scene and beaches.'}
{'id': 680, 'country_id': 219, 'city': 'Gran Canaria', 'latitude': 27.94241, 'longitude': -15.587871, 'description': 'Gran Canaria is a volcanic island off the northwest coast of Africa known for its beaches and subtropical climate.'}
{'id': 681, 'country_id': 219, 'city': 'Tenerife', 'latitude': 28.291564, 'longitude': -16.62913, 'description': "Tenerife is the largest of Spain's Canary Islands and home to Mount Teide volcano, Puerto de la Cruz resort and black sand beaches."}
{'id': 682, 'country_id': 219, 'city': 'Palma de Mallorca', 'latitude': 39.569229, 'longitude': 2.650241, 'description': "Palma is the vibrant, historic capital of Spain's Balearic island of Mallorca in the Mediterranean Sea."}
{'id': 683, 'country_id': 77, 'city': 'Oruro', 'latitude': -17.983334, 'longitude': -67.150002, 'description': 'Oruro is a city in western Bolivia that hosts one of the largest Carnaval celebrations in South America.'}
{'id': 684, 'country_id': 77, 'city': 'Potosi', 'latitude': -19.58002, 'longitude': -65.75362, 'description': 'Potosi is an Andean city in southwest Bolivia that was once one of the richest cities due to its silver mines.'}
{'id': 685, 'country_id': 91, 'city': 'Valparaiso', 'latitude': -33.047238, 'longitude': -71.612688, 'description': "Valparaíso is a port city on Chile's coast with colorful clifftop homes, funiculars, and nightlife on its historic harbor."}
